{
  "type": "FeatureCollection", 
  "features": [
    {
      "geometry": {
        "type": "Point", 
        "coordinates": [
          -4.106097880393687, 
          48.69346226033638
        ]
      }, 
      "type": "Feature", 
      "properties": {
        "nb_stationnement_a_proximite": 67, 
        "name": "Cl\u00e9der", 
        "area": 4156.864345964044, 
        "magasin_plaisance": [
          {
            "geometry": {
              "type": "Point", 
              "coordinates": [
                -4.077185099999999, 
                48.68805669999479
              ]
            }, 
            "type": "Feature", 
            "properties": {
              "ville": "SIBIRIL", 
              "cpost": "29250", 
              "name": "LES CASIERS D'ARMORIQUE"
            }
          }, 
          {
            "geometry": {
              "type": "Point", 
              "coordinates": [
                -3.9805358999999965, 
                48.72274919999477
              ]
            }, 
            "type": "Feature", 
            "properties": {
              "ville": "ROSCOFF", 
              "cpost": "29680", 
              "name": "COMPTOIR DE LA MER"
            }
          }
        ], 
        "cale_a_proximite": 0, 
        "activite_nautique": [
          {
            "geometry": {
              "type": "Point", 
              "coordinates": [
                -4.209481100000001, 
                48.663961399994825
              ]
            }, 
            "type": "Feature", 
            "properties": {
              "ville": "PLOUESCAT", 
              "name": "Centre Nautique Municipal de Plouescat"
            }
          }, 
          {
            "geometry": {
              "type": "Point", 
              "coordinates": [
                -4.103033, 
                48.662654999994835
              ]
            }, 
            "type": "Feature", 
            "properties": {
              "ville": "CLEDER", 
              "name": "Club nautique Cl\u00e9derois"
            }
          }, 
          {
            "geometry": {
              "type": "Point", 
              "coordinates": [
                -3.982923199999999, 
                48.72525809999477
              ]
            }, 
            "type": "Feature", 
            "properties": {
              "ville": "ROSCOFF", 
              "name": "Centre Nautique de Roscoff"
            }
          }, 
          {
            "geometry": {
              "type": "Point", 
              "coordinates": [
                -3.9863550999999986, 
                48.68558439999479
              ]
            }, 
            "type": "Feature", 
            "properties": {
              "ville": "SAINT-POL-DE-LEON", 
              "name": "Centre Nautique de Saint-Pol-de-Leon"
            }
          }, 
          {
            "geometry": {
              "type": "Point", 
              "coordinates": [
                -4.130034215123233, 
                48.69262641394892
              ]
            }, 
            "type": "Feature", 
            "properties": {
              "ville": "CLEDER", 
              "name": "Bretagne Atlantic Yachting"
            }
          }, 
          {
            "geometry": {
              "type": "Point", 
              "coordinates": [
                -4.0555432999999965, 
                48.694104299994784
              ]
            }, 
            "type": "Feature", 
            "properties": {
              "ville": "SANTEC", 
              "name": "R\u00eaves de Mer - Centre Nature Bon Vent & Centre Nautique Santec"
            }
          }, 
          {
            "geometry": {
              "type": "Point", 
              "coordinates": [
                -4.155214999999999, 
                48.68916669999478
              ]
            }, 
            "type": "Feature", 
            "properties": {
              "ville": "CLEDER", 
              "name": "Slash Paradise"
            }
          }, 
          {
            "geometry": {
              "type": "Point", 
              "coordinates": [
                -4.048701200000001, 
                48.6631815999948
              ]
            }, 
            "type": "Feature", 
            "properties": {
              "ville": "PLOUGOULM", 
              "name": "Kite Sans Frontiere"
            }
          }, 
          {
            "geometry": {
              "type": "Point", 
              "coordinates": [
                -4.009543999999998, 
                48.71524339999478
              ]
            }, 
            "type": "Feature", 
            "properties": {
              "ville": "ROSCOFF", 
              "name": "Mille Nautique"
            }
          }, 
          {
            "geometry": {
              "type": "Point", 
              "coordinates": [
                -4.082943500000001, 
                48.6912675999948
              ]
            }, 
            "type": "Feature", 
            "properties": {
              "ville": "SIBIRIL", 
              "name": "Ecole de Surf du Leon"
            }
          }
        ]
      }
    }, 
    {
      "geometry": {
        "type": "Point", 
        "coordinates": [
          -4.0070984048441955, 
          48.72520235640614
        ]
      }, 
      "type": "Feature", 
      "properties": {
        "nb_stationnement_a_proximite": 370, 
        "name": "Santec", 
        "area": 9084.251220145452, 
        "magasin_plaisance": [
          {
            "geometry": {
              "type": "Point", 
              "coordinates": [
                -4.077185099999999, 
                48.68805669999479
              ]
            }, 
            "type": "Feature", 
            "properties": {
              "ville": "SIBIRIL", 
              "cpost": "29250", 
              "name": "LES CASIERS D'ARMORIQUE"
            }
          }, 
          {
            "geometry": {
              "type": "Point", 
              "coordinates": [
                -3.9805358999999965, 
                48.72274919999477
              ]
            }, 
            "type": "Feature", 
            "properties": {
              "ville": "ROSCOFF", 
              "cpost": "29680", 
              "name": "COMPTOIR DE LA MER"
            }
          }, 
          {
            "geometry": {
              "type": "Point", 
              "coordinates": [
                -3.9139114999999998, 
                48.6670451999948
              ]
            }, 
            "type": "Feature", 
            "properties": {
              "ville": "CARANTEC", 
              "cpost": "29660", 
              "name": "COMPTOIR DE LA MER"
            }
          }, 
          {
            "geometry": {
              "type": "Point", 
              "coordinates": [
                -3.9694778999999976, 
                48.72268229999477
              ]
            }, 
            "type": "Feature", 
            "properties": {
              "ville": "ROSCOFF", 
              "cpost": "29680", 
              "name": "COOPANORD"
            }
          }
        ], 
        "cale_a_proximite": 0, 
        "activite_nautique": [
          {
            "geometry": {
              "type": "Point", 
              "coordinates": [
                -4.103033, 
                48.662654999994835
              ]
            }, 
            "type": "Feature", 
            "properties": {
              "ville": "CLEDER", 
              "name": "Club nautique Cl\u00e9derois"
            }
          }, 
          {
            "geometry": {
              "type": "Point", 
              "coordinates": [
                -3.982923199999999, 
                48.72525809999477
              ]
            }, 
            "type": "Feature", 
            "properties": {
              "ville": "ROSCOFF", 
              "name": "Centre Nautique de Roscoff"
            }
          }, 
          {
            "geometry": {
              "type": "Point", 
              "coordinates": [
                -3.9863550999999986, 
                48.68558439999479
              ]
            }, 
            "type": "Feature", 
            "properties": {
              "ville": "SAINT-POL-DE-LEON", 
              "name": "Centre Nautique de Saint-Pol-de-Leon"
            }
          }, 
          {
            "geometry": {
              "type": "Point", 
              "coordinates": [
                -4.130034215123233, 
                48.69262641394892
              ]
            }, 
            "type": "Feature", 
            "properties": {
              "ville": "CLEDER", 
              "name": "Bretagne Atlantic Yachting"
            }
          }, 
          {
            "geometry": {
              "type": "Point", 
              "coordinates": [
                -4.0555432999999965, 
                48.694104299994784
              ]
            }, 
            "type": "Feature", 
            "properties": {
              "ville": "SANTEC", 
              "name": "R\u00eaves de Mer - Centre Nature Bon Vent & Centre Nautique Santec"
            }
          }, 
          {
            "geometry": {
              "type": "Point", 
              "coordinates": [
                -4.048701200000001, 
                48.6631815999948
              ]
            }, 
            "type": "Feature", 
            "properties": {
              "ville": "PLOUGOULM", 
              "name": "Kite Sans Frontiere"
            }
          }, 
          {
            "geometry": {
              "type": "Point", 
              "coordinates": [
                -4.009543999999998, 
                48.71524339999478
              ]
            }, 
            "type": "Feature", 
            "properties": {
              "ville": "ROSCOFF", 
              "name": "Mille Nautique"
            }
          }, 
          {
            "geometry": {
              "type": "Point", 
              "coordinates": [
                -4.082943500000001, 
                48.6912675999948
              ]
            }, 
            "type": "Feature", 
            "properties": {
              "ville": "SIBIRIL", 
              "name": "Ecole de Surf du Leon"
            }
          }, 
          {
            "geometry": {
              "type": "Point", 
              "coordinates": [
                -4.061814000000001, 
                48.66459399999483
              ]
            }, 
            "type": "Feature", 
            "properties": {
              "ville": "ILE-MOLENE", 
              "name": "Breizh Kayak Evasion"
            }
          }, 
          {
            "geometry": {
              "type": "Point", 
              "coordinates": [
                -3.9697580000000023, 
                48.68099299999481
              ]
            }, 
            "type": "Feature", 
            "properties": {
              "ville": "SAINT-POL-DE-LEON", 
              "name": "Yole Club Saint-Politain"
            }
          }
        ]
      }
    }, 
    {
      "geometry": {
        "type": "Point", 
        "coordinates": [
          -4.005430605616046, 
          48.72627495840262
        ]
      }, 
      "type": "Feature", 
      "properties": {
        "nb_stationnement_a_proximite": 187, 
        "name": "Roscoff", 
        "area": 3501.746083286591, 
        "magasin_plaisance": [
          {
            "geometry": {
              "type": "Point", 
              "coordinates": [
                -4.077185099999999, 
                48.68805669999479
              ]
            }, 
            "type": "Feature", 
            "properties": {
              "ville": "SIBIRIL", 
              "cpost": "29250", 
              "name": "LES CASIERS D'ARMORIQUE"
            }
          }, 
          {
            "geometry": {
              "type": "Point", 
              "coordinates": [
                -3.9805358999999965, 
                48.72274919999477
              ]
            }, 
            "type": "Feature", 
            "properties": {
              "ville": "ROSCOFF", 
              "cpost": "29680", 
              "name": "COMPTOIR DE LA MER"
            }
          }, 
          {
            "geometry": {
              "type": "Point", 
              "coordinates": [
                -3.9139114999999998, 
                48.6670451999948
              ]
            }, 
            "type": "Feature", 
            "properties": {
              "ville": "CARANTEC", 
              "cpost": "29660", 
              "name": "COMPTOIR DE LA MER"
            }
          }, 
          {
            "geometry": {
              "type": "Point", 
              "coordinates": [
                -3.9694778999999976, 
                48.72268229999477
              ]
            }, 
            "type": "Feature", 
            "properties": {
              "ville": "ROSCOFF", 
              "cpost": "29680", 
              "name": "COOPANORD"
            }
          }
        ], 
        "cale_a_proximite": 0, 
        "activite_nautique": [
          {
            "geometry": {
              "type": "Point", 
              "coordinates": [
                -3.982923199999999, 
                48.72525809999477
              ]
            }, 
            "type": "Feature", 
            "properties": {
              "ville": "ROSCOFF", 
              "name": "Centre Nautique de Roscoff"
            }
          }, 
          {
            "geometry": {
              "type": "Point", 
              "coordinates": [
                -3.9863550999999986, 
                48.68558439999479
              ]
            }, 
            "type": "Feature", 
            "properties": {
              "ville": "SAINT-POL-DE-LEON", 
              "name": "Centre Nautique de Saint-Pol-de-Leon"
            }
          }, 
          {
            "geometry": {
              "type": "Point", 
              "coordinates": [
                -4.130034215123233, 
                48.69262641394892
              ]
            }, 
            "type": "Feature", 
            "properties": {
              "ville": "CLEDER", 
              "name": "Bretagne Atlantic Yachting"
            }
          }, 
          {
            "geometry": {
              "type": "Point", 
              "coordinates": [
                -4.0555432999999965, 
                48.694104299994784
              ]
            }, 
            "type": "Feature", 
            "properties": {
              "ville": "SANTEC", 
              "name": "R\u00eaves de Mer - Centre Nature Bon Vent & Centre Nautique Santec"
            }
          }, 
          {
            "geometry": {
              "type": "Point", 
              "coordinates": [
                -4.048701200000001, 
                48.6631815999948
              ]
            }, 
            "type": "Feature", 
            "properties": {
              "ville": "PLOUGOULM", 
              "name": "Kite Sans Frontiere"
            }
          }, 
          {
            "geometry": {
              "type": "Point", 
              "coordinates": [
                -4.009543999999998, 
                48.71524339999478
              ]
            }, 
            "type": "Feature", 
            "properties": {
              "ville": "ROSCOFF", 
              "name": "Mille Nautique"
            }
          }, 
          {
            "geometry": {
              "type": "Point", 
              "coordinates": [
                -4.082943500000001, 
                48.6912675999948
              ]
            }, 
            "type": "Feature", 
            "properties": {
              "ville": "SIBIRIL", 
              "name": "Ecole de Surf du Leon"
            }
          }, 
          {
            "geometry": {
              "type": "Point", 
              "coordinates": [
                -4.061814000000001, 
                48.66459399999483
              ]
            }, 
            "type": "Feature", 
            "properties": {
              "ville": "ILE-MOLENE", 
              "name": "Breizh Kayak Evasion"
            }
          }, 
          {
            "geometry": {
              "type": "Point", 
              "coordinates": [
                -3.9697580000000023, 
                48.68099299999481
              ]
            }, 
            "type": "Feature", 
            "properties": {
              "ville": "SAINT-POL-DE-LEON", 
              "name": "Yole Club Saint-Politain"
            }
          }, 
          {
            "geometry": {
              "type": "Point", 
              "coordinates": [
                -3.949480000000003, 
                48.64532299999483
              ]
            }, 
            "type": "Feature", 
            "properties": {
              "ville": "HENVIC", 
              "name": "Nunivak Henvic"
            }
          }
        ]
      }
    }, 
    {
      "geometry": {
        "type": "Point", 
        "coordinates": [
          -4.010822588533497, 
          48.71991858629854
        ]
      }, 
      "type": "Feature", 
      "properties": {
        "nb_stationnement_a_proximite": 662, 
        "name": "Santec", 
        "area": 2798.5647021256445, 
        "magasin_plaisance": [
          {
            "geometry": {
              "type": "Point", 
              "coordinates": [
                -4.077185099999999, 
                48.68805669999479
              ]
            }, 
            "type": "Feature", 
            "properties": {
              "ville": "SIBIRIL", 
              "cpost": "29250", 
              "name": "LES CASIERS D'ARMORIQUE"
            }
          }, 
          {
            "geometry": {
              "type": "Point", 
              "coordinates": [
                -3.9805358999999965, 
                48.72274919999477
              ]
            }, 
            "type": "Feature", 
            "properties": {
              "ville": "ROSCOFF", 
              "cpost": "29680", 
              "name": "COMPTOIR DE LA MER"
            }
          }, 
          {
            "geometry": {
              "type": "Point", 
              "coordinates": [
                -3.9139114999999998, 
                48.6670451999948
              ]
            }, 
            "type": "Feature", 
            "properties": {
              "ville": "CARANTEC", 
              "cpost": "29660", 
              "name": "COMPTOIR DE LA MER"
            }
          }, 
          {
            "geometry": {
              "type": "Point", 
              "coordinates": [
                -3.9694778999999976, 
                48.72268229999477
              ]
            }, 
            "type": "Feature", 
            "properties": {
              "ville": "ROSCOFF", 
              "cpost": "29680", 
              "name": "COOPANORD"
            }
          }
        ], 
        "cale_a_proximite": 0, 
        "activite_nautique": [
          {
            "geometry": {
              "type": "Point", 
              "coordinates": [
                -4.103033, 
                48.662654999994835
              ]
            }, 
            "type": "Feature", 
            "properties": {
              "ville": "CLEDER", 
              "name": "Club nautique Cl\u00e9derois"
            }
          }, 
          {
            "geometry": {
              "type": "Point", 
              "coordinates": [
                -3.982923199999999, 
                48.72525809999477
              ]
            }, 
            "type": "Feature", 
            "properties": {
              "ville": "ROSCOFF", 
              "name": "Centre Nautique de Roscoff"
            }
          }, 
          {
            "geometry": {
              "type": "Point", 
              "coordinates": [
                -3.9863550999999986, 
                48.68558439999479
              ]
            }, 
            "type": "Feature", 
            "properties": {
              "ville": "SAINT-POL-DE-LEON", 
              "name": "Centre Nautique de Saint-Pol-de-Leon"
            }
          }, 
          {
            "geometry": {
              "type": "Point", 
              "coordinates": [
                -4.130034215123233, 
                48.69262641394892
              ]
            }, 
            "type": "Feature", 
            "properties": {
              "ville": "CLEDER", 
              "name": "Bretagne Atlantic Yachting"
            }
          }, 
          {
            "geometry": {
              "type": "Point", 
              "coordinates": [
                -4.0555432999999965, 
                48.694104299994784
              ]
            }, 
            "type": "Feature", 
            "properties": {
              "ville": "SANTEC", 
              "name": "R\u00eaves de Mer - Centre Nature Bon Vent & Centre Nautique Santec"
            }
          }, 
          {
            "geometry": {
              "type": "Point", 
              "coordinates": [
                -4.048701200000001, 
                48.6631815999948
              ]
            }, 
            "type": "Feature", 
            "properties": {
              "ville": "PLOUGOULM", 
              "name": "Kite Sans Frontiere"
            }
          }, 
          {
            "geometry": {
              "type": "Point", 
              "coordinates": [
                -4.009543999999998, 
                48.71524339999478
              ]
            }, 
            "type": "Feature", 
            "properties": {
              "ville": "ROSCOFF", 
              "name": "Mille Nautique"
            }
          }, 
          {
            "geometry": {
              "type": "Point", 
              "coordinates": [
                -4.082943500000001, 
                48.6912675999948
              ]
            }, 
            "type": "Feature", 
            "properties": {
              "ville": "SIBIRIL", 
              "name": "Ecole de Surf du Leon"
            }
          }, 
          {
            "geometry": {
              "type": "Point", 
              "coordinates": [
                -4.061814000000001, 
                48.66459399999483
              ]
            }, 
            "type": "Feature", 
            "properties": {
              "ville": "ILE-MOLENE", 
              "name": "Breizh Kayak Evasion"
            }
          }, 
          {
            "geometry": {
              "type": "Point", 
              "coordinates": [
                -3.9697580000000023, 
                48.68099299999481
              ]
            }, 
            "type": "Feature", 
            "properties": {
              "ville": "SAINT-POL-DE-LEON", 
              "name": "Yole Club Saint-Politain"
            }
          }
        ]
      }
    }, 
    {
      "geometry": {
        "type": "Point", 
        "coordinates": [
          -4.020699533190411, 
          48.712916999482516
        ]
      }, 
      "type": "Feature", 
      "properties": {
        "nb_stationnement_a_proximite": 740, 
        "name": "Santec", 
        "area": 43914.840692148886, 
        "magasin_plaisance": [
          {
            "geometry": {
              "type": "Point", 
              "coordinates": [
                -4.077185099999999, 
                48.68805669999479
              ]
            }, 
            "type": "Feature", 
            "properties": {
              "ville": "SIBIRIL", 
              "cpost": "29250", 
              "name": "LES CASIERS D'ARMORIQUE"
            }
          }, 
          {
            "geometry": {
              "type": "Point", 
              "coordinates": [
                -3.9805358999999965, 
                48.72274919999477
              ]
            }, 
            "type": "Feature", 
            "properties": {
              "ville": "ROSCOFF", 
              "cpost": "29680", 
              "name": "COMPTOIR DE LA MER"
            }
          }, 
          {
            "geometry": {
              "type": "Point", 
              "coordinates": [
                -3.9139114999999998, 
                48.6670451999948
              ]
            }, 
            "type": "Feature", 
            "properties": {
              "ville": "CARANTEC", 
              "cpost": "29660", 
              "name": "COMPTOIR DE LA MER"
            }
          }, 
          {
            "geometry": {
              "type": "Point", 
              "coordinates": [
                -3.9694778999999976, 
                48.72268229999477
              ]
            }, 
            "type": "Feature", 
            "properties": {
              "ville": "ROSCOFF", 
              "cpost": "29680", 
              "name": "COOPANORD"
            }
          }
        ], 
        "cale_a_proximite": 0, 
        "activite_nautique": [
          {
            "geometry": {
              "type": "Point", 
              "coordinates": [
                -4.103033, 
                48.662654999994835
              ]
            }, 
            "type": "Feature", 
            "properties": {
              "ville": "CLEDER", 
              "name": "Club nautique Cl\u00e9derois"
            }
          }, 
          {
            "geometry": {
              "type": "Point", 
              "coordinates": [
                -3.9115595, 
                48.65790379999482
              ]
            }, 
            "type": "Feature", 
            "properties": {
              "ville": "CARANTEC", 
              "name": "Club nautique de Carantec"
            }
          }, 
          {
            "geometry": {
              "type": "Point", 
              "coordinates": [
                -3.9115595, 
                48.65790379999482
              ]
            }, 
            "type": "Feature", 
            "properties": {
              "ville": "CARANTEC", 
              "name": "Association Carantec Nautisme"
            }
          }, 
          {
            "geometry": {
              "type": "Point", 
              "coordinates": [
                -3.982923199999999, 
                48.72525809999477
              ]
            }, 
            "type": "Feature", 
            "properties": {
              "ville": "ROSCOFF", 
              "name": "Centre Nautique de Roscoff"
            }
          }, 
          {
            "geometry": {
              "type": "Point", 
              "coordinates": [
                -3.9863550999999986, 
                48.68558439999479
              ]
            }, 
            "type": "Feature", 
            "properties": {
              "ville": "SAINT-POL-DE-LEON", 
              "name": "Centre Nautique de Saint-Pol-de-Leon"
            }
          }, 
          {
            "geometry": {
              "type": "Point", 
              "coordinates": [
                -4.130034215123233, 
                48.69262641394892
              ]
            }, 
            "type": "Feature", 
            "properties": {
              "ville": "CLEDER", 
              "name": "Bretagne Atlantic Yachting"
            }
          }, 
          {
            "geometry": {
              "type": "Point", 
              "coordinates": [
                -4.0555432999999965, 
                48.694104299994784
              ]
            }, 
            "type": "Feature", 
            "properties": {
              "ville": "SANTEC", 
              "name": "R\u00eaves de Mer - Centre Nature Bon Vent & Centre Nautique Santec"
            }
          }, 
          {
            "geometry": {
              "type": "Point", 
              "coordinates": [
                -4.155214999999999, 
                48.68916669999478
              ]
            }, 
            "type": "Feature", 
            "properties": {
              "ville": "CLEDER", 
              "name": "Slash Paradise"
            }
          }, 
          {
            "geometry": {
              "type": "Point", 
              "coordinates": [
                -4.048701200000001, 
                48.6631815999948
              ]
            }, 
            "type": "Feature", 
            "properties": {
              "ville": "PLOUGOULM", 
              "name": "Kite Sans Frontiere"
            }
          }, 
          {
            "geometry": {
              "type": "Point", 
              "coordinates": [
                -4.009543999999998, 
                48.71524339999478
              ]
            }, 
            "type": "Feature", 
            "properties": {
              "ville": "ROSCOFF", 
              "name": "Mille Nautique"
            }
          }
        ]
      }
    }, 
    {
      "geometry": {
        "type": "Point", 
        "coordinates": [
          -4.050164658466593, 
          48.705185204779994
        ]
      }, 
      "type": "Feature", 
      "properties": {
        "nb_stationnement_a_proximite": 136, 
        "name": "Santec", 
        "area": 4712.174557997496, 
        "magasin_plaisance": [
          {
            "geometry": {
              "type": "Point", 
              "coordinates": [
                -4.077185099999999, 
                48.68805669999479
              ]
            }, 
            "type": "Feature", 
            "properties": {
              "ville": "SIBIRIL", 
              "cpost": "29250", 
              "name": "LES CASIERS D'ARMORIQUE"
            }
          }, 
          {
            "geometry": {
              "type": "Point", 
              "coordinates": [
                -3.9805358999999965, 
                48.72274919999477
              ]
            }, 
            "type": "Feature", 
            "properties": {
              "ville": "ROSCOFF", 
              "cpost": "29680", 
              "name": "COMPTOIR DE LA MER"
            }
          }, 
          {
            "geometry": {
              "type": "Point", 
              "coordinates": [
                -3.9694778999999976, 
                48.72268229999477
              ]
            }, 
            "type": "Feature", 
            "properties": {
              "ville": "ROSCOFF", 
              "cpost": "29680", 
              "name": "COOPANORD"
            }
          }
        ], 
        "cale_a_proximite": 0, 
        "activite_nautique": [
          {
            "geometry": {
              "type": "Point", 
              "coordinates": [
                -4.103033, 
                48.662654999994835
              ]
            }, 
            "type": "Feature", 
            "properties": {
              "ville": "CLEDER", 
              "name": "Club nautique Cl\u00e9derois"
            }
          }, 
          {
            "geometry": {
              "type": "Point", 
              "coordinates": [
                -3.982923199999999, 
                48.72525809999477
              ]
            }, 
            "type": "Feature", 
            "properties": {
              "ville": "ROSCOFF", 
              "name": "Centre Nautique de Roscoff"
            }
          }, 
          {
            "geometry": {
              "type": "Point", 
              "coordinates": [
                -3.9863550999999986, 
                48.68558439999479
              ]
            }, 
            "type": "Feature", 
            "properties": {
              "ville": "SAINT-POL-DE-LEON", 
              "name": "Centre Nautique de Saint-Pol-de-Leon"
            }
          }, 
          {
            "geometry": {
              "type": "Point", 
              "coordinates": [
                -4.130034215123233, 
                48.69262641394892
              ]
            }, 
            "type": "Feature", 
            "properties": {
              "ville": "CLEDER", 
              "name": "Bretagne Atlantic Yachting"
            }
          }, 
          {
            "geometry": {
              "type": "Point", 
              "coordinates": [
                -4.0555432999999965, 
                48.694104299994784
              ]
            }, 
            "type": "Feature", 
            "properties": {
              "ville": "SANTEC", 
              "name": "R\u00eaves de Mer - Centre Nature Bon Vent & Centre Nautique Santec"
            }
          }, 
          {
            "geometry": {
              "type": "Point", 
              "coordinates": [
                -4.155214999999999, 
                48.68916669999478
              ]
            }, 
            "type": "Feature", 
            "properties": {
              "ville": "CLEDER", 
              "name": "Slash Paradise"
            }
          }, 
          {
            "geometry": {
              "type": "Point", 
              "coordinates": [
                -4.048701200000001, 
                48.6631815999948
              ]
            }, 
            "type": "Feature", 
            "properties": {
              "ville": "PLOUGOULM", 
              "name": "Kite Sans Frontiere"
            }
          }, 
          {
            "geometry": {
              "type": "Point", 
              "coordinates": [
                -4.009543999999998, 
                48.71524339999478
              ]
            }, 
            "type": "Feature", 
            "properties": {
              "ville": "ROSCOFF", 
              "name": "Mille Nautique"
            }
          }, 
          {
            "geometry": {
              "type": "Point", 
              "coordinates": [
                -4.082943500000001, 
                48.6912675999948
              ]
            }, 
            "type": "Feature", 
            "properties": {
              "ville": "SIBIRIL", 
              "name": "Ecole de Surf du Leon"
            }
          }, 
          {
            "geometry": {
              "type": "Point", 
              "coordinates": [
                -4.061814000000001, 
                48.66459399999483
              ]
            }, 
            "type": "Feature", 
            "properties": {
              "ville": "ILE-MOLENE", 
              "name": "Breizh Kayak Evasion"
            }
          }
        ]
      }
    }, 
    {
      "geometry": {
        "type": "Point", 
        "coordinates": [
          -4.141792531651149, 
          48.69333575679512
        ]
      }, 
      "type": "Feature", 
      "properties": {
        "nb_stationnement_a_proximite": 834, 
        "name": "Cl\u00e9der", 
        "area": 53170.65671176833, 
        "magasin_plaisance": [
          {
            "geometry": {
              "type": "Point", 
              "coordinates": [
                -4.077185099999999, 
                48.68805669999479
              ]
            }, 
            "type": "Feature", 
            "properties": {
              "ville": "SIBIRIL", 
              "cpost": "29250", 
              "name": "LES CASIERS D'ARMORIQUE"
            }
          }
        ], 
        "cale_a_proximite": 0, 
        "activite_nautique": [
          {
            "geometry": {
              "type": "Point", 
              "coordinates": [
                -4.209481100000001, 
                48.663961399994825
              ]
            }, 
            "type": "Feature", 
            "properties": {
              "ville": "PLOUESCAT", 
              "name": "Centre Nautique Municipal de Plouescat"
            }
          }, 
          {
            "geometry": {
              "type": "Point", 
              "coordinates": [
                -4.103033, 
                48.662654999994835
              ]
            }, 
            "type": "Feature", 
            "properties": {
              "ville": "CLEDER", 
              "name": "Club nautique Cl\u00e9derois"
            }
          }, 
          {
            "geometry": {
              "type": "Point", 
              "coordinates": [
                -4.130034215123233, 
                48.69262641394892
              ]
            }, 
            "type": "Feature", 
            "properties": {
              "ville": "CLEDER", 
              "name": "Bretagne Atlantic Yachting"
            }
          }, 
          {
            "geometry": {
              "type": "Point", 
              "coordinates": [
                -4.0555432999999965, 
                48.694104299994784
              ]
            }, 
            "type": "Feature", 
            "properties": {
              "ville": "SANTEC", 
              "name": "R\u00eaves de Mer - Centre Nature Bon Vent & Centre Nautique Santec"
            }
          }, 
          {
            "geometry": {
              "type": "Point", 
              "coordinates": [
                -4.155214999999999, 
                48.68916669999478
              ]
            }, 
            "type": "Feature", 
            "properties": {
              "ville": "CLEDER", 
              "name": "Slash Paradise"
            }
          }, 
          {
            "geometry": {
              "type": "Point", 
              "coordinates": [
                -4.048701200000001, 
                48.6631815999948
              ]
            }, 
            "type": "Feature", 
            "properties": {
              "ville": "PLOUGOULM", 
              "name": "Kite Sans Frontiere"
            }
          }, 
          {
            "geometry": {
              "type": "Point", 
              "coordinates": [
                -4.009543999999998, 
                48.71524339999478
              ]
            }, 
            "type": "Feature", 
            "properties": {
              "ville": "ROSCOFF", 
              "name": "Mille Nautique"
            }
          }, 
          {
            "geometry": {
              "type": "Point", 
              "coordinates": [
                -4.082943500000001, 
                48.6912675999948
              ]
            }, 
            "type": "Feature", 
            "properties": {
              "ville": "SIBIRIL", 
              "name": "Ecole de Surf du Leon"
            }
          }, 
          {
            "geometry": {
              "type": "Point", 
              "coordinates": [
                -4.061814000000001, 
                48.66459399999483
              ]
            }, 
            "type": "Feature", 
            "properties": {
              "ville": "ILE-MOLENE", 
              "name": "Breizh Kayak Evasion"
            }
          }, 
          {
            "geometry": {
              "type": "Point", 
              "coordinates": [
                -4.052276399999998, 
                48.69441869999478
              ]
            }, 
            "type": "Feature", 
            "properties": {
              "ville": "SANTEC", 
              "name": "Club de char a voile Enez Sieck"
            }
          }
        ]
      }
    }, 
    {
      "geometry": {
        "type": "Point", 
        "coordinates": [
          -4.125770883988374, 
          48.6940416927875
        ]
      }, 
      "type": "Feature", 
      "properties": {
        "nb_stationnement_a_proximite": 473, 
        "name": "Cl\u00e9der", 
        "area": 6327.802090916419, 
        "magasin_plaisance": [
          {
            "geometry": {
              "type": "Point", 
              "coordinates": [
                -4.077185099999999, 
                48.68805669999479
              ]
            }, 
            "type": "Feature", 
            "properties": {
              "ville": "SIBIRIL", 
              "cpost": "29250", 
              "name": "LES CASIERS D'ARMORIQUE"
            }
          }
        ], 
        "cale_a_proximite": 1, 
        "activite_nautique": [
          {
            "geometry": {
              "type": "Point", 
              "coordinates": [
                -4.209481100000001, 
                48.663961399994825
              ]
            }, 
            "type": "Feature", 
            "properties": {
              "ville": "PLOUESCAT", 
              "name": "Centre Nautique Municipal de Plouescat"
            }
          }, 
          {
            "geometry": {
              "type": "Point", 
              "coordinates": [
                -4.103033, 
                48.662654999994835
              ]
            }, 
            "type": "Feature", 
            "properties": {
              "ville": "CLEDER", 
              "name": "Club nautique Cl\u00e9derois"
            }
          }, 
          {
            "geometry": {
              "type": "Point", 
              "coordinates": [
                -4.130034215123233, 
                48.69262641394892
              ]
            }, 
            "type": "Feature", 
            "properties": {
              "ville": "CLEDER", 
              "name": "Bretagne Atlantic Yachting"
            }
          }, 
          {
            "geometry": {
              "type": "Point", 
              "coordinates": [
                -4.0555432999999965, 
                48.694104299994784
              ]
            }, 
            "type": "Feature", 
            "properties": {
              "ville": "SANTEC", 
              "name": "R\u00eaves de Mer - Centre Nature Bon Vent & Centre Nautique Santec"
            }
          }, 
          {
            "geometry": {
              "type": "Point", 
              "coordinates": [
                -4.155214999999999, 
                48.68916669999478
              ]
            }, 
            "type": "Feature", 
            "properties": {
              "ville": "CLEDER", 
              "name": "Slash Paradise"
            }
          }, 
          {
            "geometry": {
              "type": "Point", 
              "coordinates": [
                -4.048701200000001, 
                48.6631815999948
              ]
            }, 
            "type": "Feature", 
            "properties": {
              "ville": "PLOUGOULM", 
              "name": "Kite Sans Frontiere"
            }
          }, 
          {
            "geometry": {
              "type": "Point", 
              "coordinates": [
                -4.009543999999998, 
                48.71524339999478
              ]
            }, 
            "type": "Feature", 
            "properties": {
              "ville": "ROSCOFF", 
              "name": "Mille Nautique"
            }
          }, 
          {
            "geometry": {
              "type": "Point", 
              "coordinates": [
                -4.082943500000001, 
                48.6912675999948
              ]
            }, 
            "type": "Feature", 
            "properties": {
              "ville": "SIBIRIL", 
              "name": "Ecole de Surf du Leon"
            }
          }, 
          {
            "geometry": {
              "type": "Point", 
              "coordinates": [
                -4.061814000000001, 
                48.66459399999483
              ]
            }, 
            "type": "Feature", 
            "properties": {
              "ville": "ILE-MOLENE", 
              "name": "Breizh Kayak Evasion"
            }
          }, 
          {
            "geometry": {
              "type": "Point", 
              "coordinates": [
                -4.052276399999998, 
                48.69441869999478
              ]
            }, 
            "type": "Feature", 
            "properties": {
              "ville": "SANTEC", 
              "name": "Club de char a voile Enez Sieck"
            }
          }
        ]
      }
    }, 
    {
      "geometry": {
        "type": "Point", 
        "coordinates": [
          -4.119083078864797, 
          48.693492798465364
        ]
      }, 
      "type": "Feature", 
      "properties": {
        "nb_stationnement_a_proximite": 110, 
        "name": "Cl\u00e9der", 
        "area": 10219.556532263057, 
        "magasin_plaisance": [
          {
            "geometry": {
              "type": "Point", 
              "coordinates": [
                -4.077185099999999, 
                48.68805669999479
              ]
            }, 
            "type": "Feature", 
            "properties": {
              "ville": "SIBIRIL", 
              "cpost": "29250", 
              "name": "LES CASIERS D'ARMORIQUE"
            }
          }
        ], 
        "cale_a_proximite": 1, 
        "activite_nautique": [
          {
            "geometry": {
              "type": "Point", 
              "coordinates": [
                -4.209481100000001, 
                48.663961399994825
              ]
            }, 
            "type": "Feature", 
            "properties": {
              "ville": "PLOUESCAT", 
              "name": "Centre Nautique Municipal de Plouescat"
            }
          }, 
          {
            "geometry": {
              "type": "Point", 
              "coordinates": [
                -4.103033, 
                48.662654999994835
              ]
            }, 
            "type": "Feature", 
            "properties": {
              "ville": "CLEDER", 
              "name": "Club nautique Cl\u00e9derois"
            }
          }, 
          {
            "geometry": {
              "type": "Point", 
              "coordinates": [
                -3.9863550999999986, 
                48.68558439999479
              ]
            }, 
            "type": "Feature", 
            "properties": {
              "ville": "SAINT-POL-DE-LEON", 
              "name": "Centre Nautique de Saint-Pol-de-Leon"
            }
          }, 
          {
            "geometry": {
              "type": "Point", 
              "coordinates": [
                -4.130034215123233, 
                48.69262641394892
              ]
            }, 
            "type": "Feature", 
            "properties": {
              "ville": "CLEDER", 
              "name": "Bretagne Atlantic Yachting"
            }
          }, 
          {
            "geometry": {
              "type": "Point", 
              "coordinates": [
                -4.0555432999999965, 
                48.694104299994784
              ]
            }, 
            "type": "Feature", 
            "properties": {
              "ville": "SANTEC", 
              "name": "R\u00eaves de Mer - Centre Nature Bon Vent & Centre Nautique Santec"
            }
          }, 
          {
            "geometry": {
              "type": "Point", 
              "coordinates": [
                -4.155214999999999, 
                48.68916669999478
              ]
            }, 
            "type": "Feature", 
            "properties": {
              "ville": "CLEDER", 
              "name": "Slash Paradise"
            }
          }, 
          {
            "geometry": {
              "type": "Point", 
              "coordinates": [
                -4.048701200000001, 
                48.6631815999948
              ]
            }, 
            "type": "Feature", 
            "properties": {
              "ville": "PLOUGOULM", 
              "name": "Kite Sans Frontiere"
            }
          }, 
          {
            "geometry": {
              "type": "Point", 
              "coordinates": [
                -4.009543999999998, 
                48.71524339999478
              ]
            }, 
            "type": "Feature", 
            "properties": {
              "ville": "ROSCOFF", 
              "name": "Mille Nautique"
            }
          }, 
          {
            "geometry": {
              "type": "Point", 
              "coordinates": [
                -4.082943500000001, 
                48.6912675999948
              ]
            }, 
            "type": "Feature", 
            "properties": {
              "ville": "SIBIRIL", 
              "name": "Ecole de Surf du Leon"
            }
          }, 
          {
            "geometry": {
              "type": "Point", 
              "coordinates": [
                -4.061814000000001, 
                48.66459399999483
              ]
            }, 
            "type": "Feature", 
            "properties": {
              "ville": "ILE-MOLENE", 
              "name": "Breizh Kayak Evasion"
            }
          }
        ]
      }
    }, 
    {
      "geometry": {
        "type": "Point", 
        "coordinates": [
          -4.164595690080386, 
          48.68902332622336
        ]
      }, 
      "type": "Feature", 
      "properties": {
        "nb_stationnement_a_proximite": 451, 
        "name": "Plouescat", 
        "area": 16901.327688137535, 
        "magasin_plaisance": [
          {
            "geometry": {
              "type": "Point", 
              "coordinates": [
                -4.077185099999999, 
                48.68805669999479
              ]
            }, 
            "type": "Feature", 
            "properties": {
              "ville": "SIBIRIL", 
              "cpost": "29250", 
              "name": "LES CASIERS D'ARMORIQUE"
            }
          }
        ], 
        "cale_a_proximite": 0, 
        "activite_nautique": [
          {
            "geometry": {
              "type": "Point", 
              "coordinates": [
                -4.209481100000001, 
                48.663961399994825
              ]
            }, 
            "type": "Feature", 
            "properties": {
              "ville": "PLOUESCAT", 
              "name": "Centre Nautique Municipal de Plouescat"
            }
          }, 
          {
            "geometry": {
              "type": "Point", 
              "coordinates": [
                -4.103033, 
                48.662654999994835
              ]
            }, 
            "type": "Feature", 
            "properties": {
              "ville": "CLEDER", 
              "name": "Club nautique Cl\u00e9derois"
            }
          }, 
          {
            "geometry": {
              "type": "Point", 
              "coordinates": [
                -4.130034215123233, 
                48.69262641394892
              ]
            }, 
            "type": "Feature", 
            "properties": {
              "ville": "CLEDER", 
              "name": "Bretagne Atlantic Yachting"
            }
          }, 
          {
            "geometry": {
              "type": "Point", 
              "coordinates": [
                -4.0555432999999965, 
                48.694104299994784
              ]
            }, 
            "type": "Feature", 
            "properties": {
              "ville": "SANTEC", 
              "name": "R\u00eaves de Mer - Centre Nature Bon Vent & Centre Nautique Santec"
            }
          }, 
          {
            "geometry": {
              "type": "Point", 
              "coordinates": [
                -4.155214999999999, 
                48.68916669999478
              ]
            }, 
            "type": "Feature", 
            "properties": {
              "ville": "CLEDER", 
              "name": "Slash Paradise"
            }
          }, 
          {
            "geometry": {
              "type": "Point", 
              "coordinates": [
                -4.048701200000001, 
                48.6631815999948
              ]
            }, 
            "type": "Feature", 
            "properties": {
              "ville": "PLOUGOULM", 
              "name": "Kite Sans Frontiere"
            }
          }, 
          {
            "geometry": {
              "type": "Point", 
              "coordinates": [
                -4.082943500000001, 
                48.6912675999948
              ]
            }, 
            "type": "Feature", 
            "properties": {
              "ville": "SIBIRIL", 
              "name": "Ecole de Surf du Leon"
            }
          }, 
          {
            "geometry": {
              "type": "Point", 
              "coordinates": [
                -4.061814000000001, 
                48.66459399999483
              ]
            }, 
            "type": "Feature", 
            "properties": {
              "ville": "ILE-MOLENE", 
              "name": "Breizh Kayak Evasion"
            }
          }, 
          {
            "geometry": {
              "type": "Point", 
              "coordinates": [
                -4.052276399999998, 
                48.69441869999478
              ]
            }, 
            "type": "Feature", 
            "properties": {
              "ville": "SANTEC", 
              "name": "Club de char a voile Enez Sieck"
            }
          }, 
          {
            "geometry": {
              "type": "Point", 
              "coordinates": [
                -4.1740198, 
                48.65743429999483
              ]
            }, 
            "type": "Feature", 
            "properties": {
              "ville": "PLOUESCAT", 
              "name": "Association sportive Voile Plouescat"
            }
          }
        ]
      }
    }, 
    {
      "geometry": {
        "type": "Point", 
        "coordinates": [
          -4.348525590901095, 
          48.67681979908721
        ]
      }, 
      "type": "Feature", 
      "properties": {
        "nb_stationnement_a_proximite": 177, 
        "name": "Kerlouan", 
        "area": 13977.137181639788, 
        "magasin_plaisance": [], 
        "cale_a_proximite": 0, 
        "activite_nautique": [
          {
            "geometry": {
              "type": "Point", 
              "coordinates": [
                -4.328065600000001, 
                48.6731299999948
              ]
            }, 
            "type": "Feature", 
            "properties": {
              "ville": "BRIGNOGAN-PLAGE", 
              "name": "Centre Nautique de Brignogan-Plages"
            }
          }, 
          {
            "geometry": {
              "type": "Point", 
              "coordinates": [
                -4.303459000000001, 
                48.65268999999483
              ]
            }, 
            "type": "Feature", 
            "properties": {
              "ville": "PLOUNEOUR-TREZ", 
              "name": "R\u00eaves de Mer - Kermor B3 & Maison de la Baie"
            }
          }, 
          {
            "geometry": {
              "type": "Point", 
              "coordinates": [
                -4.3175722, 
                48.65082509999481
              ]
            }, 
            "type": "Feature", 
            "properties": {
              "ville": "PLOUNEOUR-TREZ", 
              "name": "Kerurus Voile et Vent"
            }
          }, 
          {
            "geometry": {
              "type": "Point", 
              "coordinates": [
                -4.388805699999995, 
                48.646240299994815
              ]
            }, 
            "type": "Feature", 
            "properties": {
              "ville": "KERLOUAN", 
              "name": "Trechou Surf Club"
            }
          }, 
          {
            "geometry": {
              "type": "Point", 
              "coordinates": [
                -4.400470730975162, 
                48.65419035740021
              ]
            }, 
            "type": "Feature", 
            "properties": {
              "ville": "KERLOUAN", 
              "name": "PAGAN SURF SCHOOL"
            }
          }
        ]
      }
    }, 
    {
      "geometry": {
        "type": "Point", 
        "coordinates": [
          -4.084877526768435, 
          48.69104027872791
        ]
      }, 
      "type": "Feature", 
      "properties": {
        "nb_stationnement_a_proximite": 228, 
        "name": "Sibiril", 
        "area": 4326.028242632397, 
        "magasin_plaisance": [
          {
            "geometry": {
              "type": "Point", 
              "coordinates": [
                -4.077185099999999, 
                48.68805669999479
              ]
            }, 
            "type": "Feature", 
            "properties": {
              "ville": "SIBIRIL", 
              "cpost": "29250", 
              "name": "LES CASIERS D'ARMORIQUE"
            }
          }, 
          {
            "geometry": {
              "type": "Point", 
              "coordinates": [
                -3.9805358999999965, 
                48.72274919999477
              ]
            }, 
            "type": "Feature", 
            "properties": {
              "ville": "ROSCOFF", 
              "cpost": "29680", 
              "name": "COMPTOIR DE LA MER"
            }
          }, 
          {
            "geometry": {
              "type": "Point", 
              "coordinates": [
                -3.9694778999999976, 
                48.72268229999477
              ]
            }, 
            "type": "Feature", 
            "properties": {
              "ville": "ROSCOFF", 
              "cpost": "29680", 
              "name": "COOPANORD"
            }
          }
        ], 
        "cale_a_proximite": 0, 
        "activite_nautique": [
          {
            "geometry": {
              "type": "Point", 
              "coordinates": [
                -4.209481100000001, 
                48.663961399994825
              ]
            }, 
            "type": "Feature", 
            "properties": {
              "ville": "PLOUESCAT", 
              "name": "Centre Nautique Municipal de Plouescat"
            }
          }, 
          {
            "geometry": {
              "type": "Point", 
              "coordinates": [
                -4.103033, 
                48.662654999994835
              ]
            }, 
            "type": "Feature", 
            "properties": {
              "ville": "CLEDER", 
              "name": "Club nautique Cl\u00e9derois"
            }
          }, 
          {
            "geometry": {
              "type": "Point", 
              "coordinates": [
                -3.982923199999999, 
                48.72525809999477
              ]
            }, 
            "type": "Feature", 
            "properties": {
              "ville": "ROSCOFF", 
              "name": "Centre Nautique de Roscoff"
            }
          }, 
          {
            "geometry": {
              "type": "Point", 
              "coordinates": [
                -3.9863550999999986, 
                48.68558439999479
              ]
            }, 
            "type": "Feature", 
            "properties": {
              "ville": "SAINT-POL-DE-LEON", 
              "name": "Centre Nautique de Saint-Pol-de-Leon"
            }
          }, 
          {
            "geometry": {
              "type": "Point", 
              "coordinates": [
                -4.130034215123233, 
                48.69262641394892
              ]
            }, 
            "type": "Feature", 
            "properties": {
              "ville": "CLEDER", 
              "name": "Bretagne Atlantic Yachting"
            }
          }, 
          {
            "geometry": {
              "type": "Point", 
              "coordinates": [
                -4.0555432999999965, 
                48.694104299994784
              ]
            }, 
            "type": "Feature", 
            "properties": {
              "ville": "SANTEC", 
              "name": "R\u00eaves de Mer - Centre Nature Bon Vent & Centre Nautique Santec"
            }
          }, 
          {
            "geometry": {
              "type": "Point", 
              "coordinates": [
                -4.155214999999999, 
                48.68916669999478
              ]
            }, 
            "type": "Feature", 
            "properties": {
              "ville": "CLEDER", 
              "name": "Slash Paradise"
            }
          }, 
          {
            "geometry": {
              "type": "Point", 
              "coordinates": [
                -4.048701200000001, 
                48.6631815999948
              ]
            }, 
            "type": "Feature", 
            "properties": {
              "ville": "PLOUGOULM", 
              "name": "Kite Sans Frontiere"
            }
          }, 
          {
            "geometry": {
              "type": "Point", 
              "coordinates": [
                -4.009543999999998, 
                48.71524339999478
              ]
            }, 
            "type": "Feature", 
            "properties": {
              "ville": "ROSCOFF", 
              "name": "Mille Nautique"
            }
          }, 
          {
            "geometry": {
              "type": "Point", 
              "coordinates": [
                -4.082943500000001, 
                48.6912675999948
              ]
            }, 
            "type": "Feature", 
            "properties": {
              "ville": "SIBIRIL", 
              "name": "Ecole de Surf du Leon"
            }
          }
        ]
      }
    }, 
    {
      "geometry": {
        "type": "Point", 
        "coordinates": [
          -4.360839269469934, 
          48.67172014294247
        ]
      }, 
      "type": "Feature", 
      "properties": {
        "nb_stationnement_a_proximite": 656, 
        "name": "Kerlouan", 
        "area": 54013.9401196152, 
        "magasin_plaisance": [], 
        "cale_a_proximite": 0, 
        "activite_nautique": [
          {
            "geometry": {
              "type": "Point", 
              "coordinates": [
                -4.328065600000001, 
                48.6731299999948
              ]
            }, 
            "type": "Feature", 
            "properties": {
              "ville": "BRIGNOGAN-PLAGE", 
              "name": "Centre Nautique de Brignogan-Plages"
            }
          }, 
          {
            "geometry": {
              "type": "Point", 
              "coordinates": [
                -4.303459000000001, 
                48.65268999999483
              ]
            }, 
            "type": "Feature", 
            "properties": {
              "ville": "PLOUNEOUR-TREZ", 
              "name": "R\u00eaves de Mer - Kermor B3 & Maison de la Baie"
            }
          }, 
          {
            "geometry": {
              "type": "Point", 
              "coordinates": [
                -4.3175722, 
                48.65082509999481
              ]
            }, 
            "type": "Feature", 
            "properties": {
              "ville": "PLOUNEOUR-TREZ", 
              "name": "Kerurus Voile et Vent"
            }
          }, 
          {
            "geometry": {
              "type": "Point", 
              "coordinates": [
                -4.388805699999995, 
                48.646240299994815
              ]
            }, 
            "type": "Feature", 
            "properties": {
              "ville": "KERLOUAN", 
              "name": "Trechou Surf Club"
            }
          }, 
          {
            "geometry": {
              "type": "Point", 
              "coordinates": [
                -4.400470730975162, 
                48.65419035740021
              ]
            }, 
            "type": "Feature", 
            "properties": {
              "ville": "KERLOUAN", 
              "name": "PAGAN SURF SCHOOL"
            }
          }
        ]
      }
    }, 
    {
      "geometry": {
        "type": "Point", 
        "coordinates": [
          -4.327981751931785, 
          48.67487388670086
        ]
      }, 
      "type": "Feature", 
      "properties": {
        "nb_stationnement_a_proximite": 403, 
        "name": "Brignogan-Plages", 
        "area": 13109.9091102448, 
        "magasin_plaisance": [], 
        "cale_a_proximite": 0, 
        "activite_nautique": [
          {
            "geometry": {
              "type": "Point", 
              "coordinates": [
                -4.209481100000001, 
                48.663961399994825
              ]
            }, 
            "type": "Feature", 
            "properties": {
              "ville": "PLOUESCAT", 
              "name": "Centre Nautique Municipal de Plouescat"
            }
          }, 
          {
            "geometry": {
              "type": "Point", 
              "coordinates": [
                -4.328065600000001, 
                48.6731299999948
              ]
            }, 
            "type": "Feature", 
            "properties": {
              "ville": "BRIGNOGAN-PLAGE", 
              "name": "Centre Nautique de Brignogan-Plages"
            }
          }, 
          {
            "geometry": {
              "type": "Point", 
              "coordinates": [
                -4.303459000000001, 
                48.65268999999483
              ]
            }, 
            "type": "Feature", 
            "properties": {
              "ville": "PLOUNEOUR-TREZ", 
              "name": "R\u00eaves de Mer - Kermor B3 & Maison de la Baie"
            }
          }, 
          {
            "geometry": {
              "type": "Point", 
              "coordinates": [
                -4.3175722, 
                48.65082509999481
              ]
            }, 
            "type": "Feature", 
            "properties": {
              "ville": "PLOUNEOUR-TREZ", 
              "name": "Kerurus Voile et Vent"
            }
          }, 
          {
            "geometry": {
              "type": "Point", 
              "coordinates": [
                -4.388805699999995, 
                48.646240299994815
              ]
            }, 
            "type": "Feature", 
            "properties": {
              "ville": "KERLOUAN", 
              "name": "Trechou Surf Club"
            }
          }, 
          {
            "geometry": {
              "type": "Point", 
              "coordinates": [
                -4.400470730975162, 
                48.65419035740021
              ]
            }, 
            "type": "Feature", 
            "properties": {
              "ville": "KERLOUAN", 
              "name": "PAGAN SURF SCHOOL"
            }
          }
        ]
      }
    }, 
    {
      "geometry": {
        "type": "Point", 
        "coordinates": [
          -4.213773443667538, 
          48.66724414085296
        ]
      }, 
      "type": "Feature", 
      "properties": {
        "nb_stationnement_a_proximite": 449, 
        "name": "Plouescat", 
        "area": 4274.54077979867, 
        "magasin_plaisance": [], 
        "cale_a_proximite": 1, 
        "activite_nautique": [
          {
            "geometry": {
              "type": "Point", 
              "coordinates": [
                -4.209481100000001, 
                48.663961399994825
              ]
            }, 
            "type": "Feature", 
            "properties": {
              "ville": "PLOUESCAT", 
              "name": "Centre Nautique Municipal de Plouescat"
            }
          }, 
          {
            "geometry": {
              "type": "Point", 
              "coordinates": [
                -4.103033, 
                48.662654999994835
              ]
            }, 
            "type": "Feature", 
            "properties": {
              "ville": "CLEDER", 
              "name": "Club nautique Cl\u00e9derois"
            }
          }, 
          {
            "geometry": {
              "type": "Point", 
              "coordinates": [
                -4.328065600000001, 
                48.6731299999948
              ]
            }, 
            "type": "Feature", 
            "properties": {
              "ville": "BRIGNOGAN-PLAGE", 
              "name": "Centre Nautique de Brignogan-Plages"
            }
          }, 
          {
            "geometry": {
              "type": "Point", 
              "coordinates": [
                -4.303459000000001, 
                48.65268999999483
              ]
            }, 
            "type": "Feature", 
            "properties": {
              "ville": "PLOUNEOUR-TREZ", 
              "name": "R\u00eaves de Mer - Kermor B3 & Maison de la Baie"
            }
          }, 
          {
            "geometry": {
              "type": "Point", 
              "coordinates": [
                -4.130034215123233, 
                48.69262641394892
              ]
            }, 
            "type": "Feature", 
            "properties": {
              "ville": "CLEDER", 
              "name": "Bretagne Atlantic Yachting"
            }
          }, 
          {
            "geometry": {
              "type": "Point", 
              "coordinates": [
                -4.155214999999999, 
                48.68916669999478
              ]
            }, 
            "type": "Feature", 
            "properties": {
              "ville": "CLEDER", 
              "name": "Slash Paradise"
            }
          }, 
          {
            "geometry": {
              "type": "Point", 
              "coordinates": [
                -4.082943500000001, 
                48.6912675999948
              ]
            }, 
            "type": "Feature", 
            "properties": {
              "ville": "SIBIRIL", 
              "name": "Ecole de Surf du Leon"
            }
          }, 
          {
            "geometry": {
              "type": "Point", 
              "coordinates": [
                -4.3175722, 
                48.65082509999481
              ]
            }, 
            "type": "Feature", 
            "properties": {
              "ville": "PLOUNEOUR-TREZ", 
              "name": "Kerurus Voile et Vent"
            }
          }, 
          {
            "geometry": {
              "type": "Point", 
              "coordinates": [
                -4.1740198, 
                48.65743429999483
              ]
            }, 
            "type": "Feature", 
            "properties": {
              "ville": "PLOUESCAT", 
              "name": "Association sportive Voile Plouescat"
            }
          }, 
          {
            "geometry": {
              "type": "Point", 
              "coordinates": [
                -4.1919179999999985, 
                48.65280499999481
              ]
            }, 
            "type": "Feature", 
            "properties": {
              "ville": "PLOUESCAT", 
              "name": "Adrien Philip"
            }
          }
        ]
      }
    }, 
    {
      "geometry": {
        "type": "Point", 
        "coordinates": [
          -4.194490310523483, 
          48.68018133687399
        ]
      }, 
      "type": "Feature", 
      "properties": {
        "nb_stationnement_a_proximite": 59, 
        "name": "Plouescat", 
        "area": 13200.068491571525, 
        "magasin_plaisance": [
          {
            "geometry": {
              "type": "Point", 
              "coordinates": [
                -4.077185099999999, 
                48.68805669999479
              ]
            }, 
            "type": "Feature", 
            "properties": {
              "ville": "SIBIRIL", 
              "cpost": "29250", 
              "name": "LES CASIERS D'ARMORIQUE"
            }
          }
        ], 
        "cale_a_proximite": 0, 
        "activite_nautique": [
          {
            "geometry": {
              "type": "Point", 
              "coordinates": [
                -4.209481100000001, 
                48.663961399994825
              ]
            }, 
            "type": "Feature", 
            "properties": {
              "ville": "PLOUESCAT", 
              "name": "Centre Nautique Municipal de Plouescat"
            }
          }, 
          {
            "geometry": {
              "type": "Point", 
              "coordinates": [
                -4.103033, 
                48.662654999994835
              ]
            }, 
            "type": "Feature", 
            "properties": {
              "ville": "CLEDER", 
              "name": "Club nautique Cl\u00e9derois"
            }
          }, 
          {
            "geometry": {
              "type": "Point", 
              "coordinates": [
                -4.328065600000001, 
                48.6731299999948
              ]
            }, 
            "type": "Feature", 
            "properties": {
              "ville": "BRIGNOGAN-PLAGE", 
              "name": "Centre Nautique de Brignogan-Plages"
            }
          }, 
          {
            "geometry": {
              "type": "Point", 
              "coordinates": [
                -4.303459000000001, 
                48.65268999999483
              ]
            }, 
            "type": "Feature", 
            "properties": {
              "ville": "PLOUNEOUR-TREZ", 
              "name": "R\u00eaves de Mer - Kermor B3 & Maison de la Baie"
            }
          }, 
          {
            "geometry": {
              "type": "Point", 
              "coordinates": [
                -4.130034215123233, 
                48.69262641394892
              ]
            }, 
            "type": "Feature", 
            "properties": {
              "ville": "CLEDER", 
              "name": "Bretagne Atlantic Yachting"
            }
          }, 
          {
            "geometry": {
              "type": "Point", 
              "coordinates": [
                -4.155214999999999, 
                48.68916669999478
              ]
            }, 
            "type": "Feature", 
            "properties": {
              "ville": "CLEDER", 
              "name": "Slash Paradise"
            }
          }, 
          {
            "geometry": {
              "type": "Point", 
              "coordinates": [
                -4.082943500000001, 
                48.6912675999948
              ]
            }, 
            "type": "Feature", 
            "properties": {
              "ville": "SIBIRIL", 
              "name": "Ecole de Surf du Leon"
            }
          }, 
          {
            "geometry": {
              "type": "Point", 
              "coordinates": [
                -4.061814000000001, 
                48.66459399999483
              ]
            }, 
            "type": "Feature", 
            "properties": {
              "ville": "ILE-MOLENE", 
              "name": "Breizh Kayak Evasion"
            }
          }, 
          {
            "geometry": {
              "type": "Point", 
              "coordinates": [
                -4.3175722, 
                48.65082509999481
              ]
            }, 
            "type": "Feature", 
            "properties": {
              "ville": "PLOUNEOUR-TREZ", 
              "name": "Kerurus Voile et Vent"
            }
          }, 
          {
            "geometry": {
              "type": "Point", 
              "coordinates": [
                -4.1740198, 
                48.65743429999483
              ]
            }, 
            "type": "Feature", 
            "properties": {
              "ville": "PLOUESCAT", 
              "name": "Association sportive Voile Plouescat"
            }
          }
        ]
      }
    }, 
    {
      "geometry": {
        "type": "Point", 
        "coordinates": [
          -4.318034924084051, 
          48.67032255594464
        ]
      }, 
      "type": "Feature", 
      "properties": {
        "nb_stationnement_a_proximite": 130, 
        "name": "Brignogan-Plages", 
        "area": 2909.746467853627, 
        "magasin_plaisance": [], 
        "cale_a_proximite": 0, 
        "activite_nautique": [
          {
            "geometry": {
              "type": "Point", 
              "coordinates": [
                -4.209481100000001, 
                48.663961399994825
              ]
            }, 
            "type": "Feature", 
            "properties": {
              "ville": "PLOUESCAT", 
              "name": "Centre Nautique Municipal de Plouescat"
            }
          }, 
          {
            "geometry": {
              "type": "Point", 
              "coordinates": [
                -4.328065600000001, 
                48.6731299999948
              ]
            }, 
            "type": "Feature", 
            "properties": {
              "ville": "BRIGNOGAN-PLAGE", 
              "name": "Centre Nautique de Brignogan-Plages"
            }
          }, 
          {
            "geometry": {
              "type": "Point", 
              "coordinates": [
                -4.303459000000001, 
                48.65268999999483
              ]
            }, 
            "type": "Feature", 
            "properties": {
              "ville": "PLOUNEOUR-TREZ", 
              "name": "R\u00eaves de Mer - Kermor B3 & Maison de la Baie"
            }
          }, 
          {
            "geometry": {
              "type": "Point", 
              "coordinates": [
                -4.3175722, 
                48.65082509999481
              ]
            }, 
            "type": "Feature", 
            "properties": {
              "ville": "PLOUNEOUR-TREZ", 
              "name": "Kerurus Voile et Vent"
            }
          }, 
          {
            "geometry": {
              "type": "Point", 
              "coordinates": [
                -4.388805699999995, 
                48.646240299994815
              ]
            }, 
            "type": "Feature", 
            "properties": {
              "ville": "KERLOUAN", 
              "name": "Trechou Surf Club"
            }
          }, 
          {
            "geometry": {
              "type": "Point", 
              "coordinates": [
                -4.1919179999999985, 
                48.65280499999481
              ]
            }, 
            "type": "Feature", 
            "properties": {
              "ville": "PLOUESCAT", 
              "name": "Adrien Philip"
            }
          }, 
          {
            "geometry": {
              "type": "Point", 
              "coordinates": [
                -4.400470730975162, 
                48.65419035740021
              ]
            }, 
            "type": "Feature", 
            "properties": {
              "ville": "KERLOUAN", 
              "name": "PAGAN SURF SCHOOL"
            }
          }
        ]
      }
    }, 
    {
      "geometry": {
        "type": "Point", 
        "coordinates": [
          -4.374674227623104, 
          48.6672719573486
        ]
      }, 
      "type": "Feature", 
      "properties": {
        "nb_stationnement_a_proximite": 480, 
        "name": "Kerlouan", 
        "area": 3718.2135631465644, 
        "magasin_plaisance": [], 
        "cale_a_proximite": 0, 
        "activite_nautique": [
          {
            "geometry": {
              "type": "Point", 
              "coordinates": [
                -4.328065600000001, 
                48.6731299999948
              ]
            }, 
            "type": "Feature", 
            "properties": {
              "ville": "BRIGNOGAN-PLAGE", 
              "name": "Centre Nautique de Brignogan-Plages"
            }
          }, 
          {
            "geometry": {
              "type": "Point", 
              "coordinates": [
                -4.303459000000001, 
                48.65268999999483
              ]
            }, 
            "type": "Feature", 
            "properties": {
              "ville": "PLOUNEOUR-TREZ", 
              "name": "R\u00eaves de Mer - Kermor B3 & Maison de la Baie"
            }
          }, 
          {
            "geometry": {
              "type": "Point", 
              "coordinates": [
                -4.3175722, 
                48.65082509999481
              ]
            }, 
            "type": "Feature", 
            "properties": {
              "ville": "PLOUNEOUR-TREZ", 
              "name": "Kerurus Voile et Vent"
            }
          }, 
          {
            "geometry": {
              "type": "Point", 
              "coordinates": [
                -4.388805699999995, 
                48.646240299994815
              ]
            }, 
            "type": "Feature", 
            "properties": {
              "ville": "KERLOUAN", 
              "name": "Trechou Surf Club"
            }
          }, 
          {
            "geometry": {
              "type": "Point", 
              "coordinates": [
                -4.400470730975162, 
                48.65419035740021
              ]
            }, 
            "type": "Feature", 
            "properties": {
              "ville": "KERLOUAN", 
              "name": "PAGAN SURF SCHOOL"
            }
          }
        ]
      }
    }, 
    {
      "geometry": {
        "type": "Point", 
        "coordinates": [
          -4.307821559661356, 
          48.6672683929287
        ]
      }, 
      "type": "Feature", 
      "properties": {
        "nb_stationnement_a_proximite": 264, 
        "name": "Ploun\u00e9our-Trez", 
        "area": 20593.57545293314, 
        "magasin_plaisance": [], 
        "cale_a_proximite": 0, 
        "activite_nautique": [
          {
            "geometry": {
              "type": "Point", 
              "coordinates": [
                -4.209481100000001, 
                48.663961399994825
              ]
            }, 
            "type": "Feature", 
            "properties": {
              "ville": "PLOUESCAT", 
              "name": "Centre Nautique Municipal de Plouescat"
            }
          }, 
          {
            "geometry": {
              "type": "Point", 
              "coordinates": [
                -4.328065600000001, 
                48.6731299999948
              ]
            }, 
            "type": "Feature", 
            "properties": {
              "ville": "BRIGNOGAN-PLAGE", 
              "name": "Centre Nautique de Brignogan-Plages"
            }
          }, 
          {
            "geometry": {
              "type": "Point", 
              "coordinates": [
                -4.303459000000001, 
                48.65268999999483
              ]
            }, 
            "type": "Feature", 
            "properties": {
              "ville": "PLOUNEOUR-TREZ", 
              "name": "R\u00eaves de Mer - Kermor B3 & Maison de la Baie"
            }
          }, 
          {
            "geometry": {
              "type": "Point", 
              "coordinates": [
                -4.3175722, 
                48.65082509999481
              ]
            }, 
            "type": "Feature", 
            "properties": {
              "ville": "PLOUNEOUR-TREZ", 
              "name": "Kerurus Voile et Vent"
            }
          }, 
          {
            "geometry": {
              "type": "Point", 
              "coordinates": [
                -4.388805699999995, 
                48.646240299994815
              ]
            }, 
            "type": "Feature", 
            "properties": {
              "ville": "KERLOUAN", 
              "name": "Trechou Surf Club"
            }
          }, 
          {
            "geometry": {
              "type": "Point", 
              "coordinates": [
                -4.1740198, 
                48.65743429999483
              ]
            }, 
            "type": "Feature", 
            "properties": {
              "ville": "PLOUESCAT", 
              "name": "Association sportive Voile Plouescat"
            }
          }, 
          {
            "geometry": {
              "type": "Point", 
              "coordinates": [
                -4.1919179999999985, 
                48.65280499999481
              ]
            }, 
            "type": "Feature", 
            "properties": {
              "ville": "PLOUESCAT", 
              "name": "Adrien Philip"
            }
          }, 
          {
            "geometry": {
              "type": "Point", 
              "coordinates": [
                -4.400470730975162, 
                48.65419035740021
              ]
            }, 
            "type": "Feature", 
            "properties": {
              "ville": "KERLOUAN", 
              "name": "PAGAN SURF SCHOOL"
            }
          }
        ]
      }
    }, 
    {
      "geometry": {
        "type": "Point", 
        "coordinates": [
          -4.322153799367097, 
          48.66631483422585
        ]
      }, 
      "type": "Feature", 
      "properties": {
        "nb_stationnement_a_proximite": 98, 
        "name": "Brignogan-Plages", 
        "area": 4917.39705758635, 
        "magasin_plaisance": [], 
        "cale_a_proximite": 0, 
        "activite_nautique": [
          {
            "geometry": {
              "type": "Point", 
              "coordinates": [
                -4.209481100000001, 
                48.663961399994825
              ]
            }, 
            "type": "Feature", 
            "properties": {
              "ville": "PLOUESCAT", 
              "name": "Centre Nautique Municipal de Plouescat"
            }
          }, 
          {
            "geometry": {
              "type": "Point", 
              "coordinates": [
                -4.328065600000001, 
                48.6731299999948
              ]
            }, 
            "type": "Feature", 
            "properties": {
              "ville": "BRIGNOGAN-PLAGE", 
              "name": "Centre Nautique de Brignogan-Plages"
            }
          }, 
          {
            "geometry": {
              "type": "Point", 
              "coordinates": [
                -4.303459000000001, 
                48.65268999999483
              ]
            }, 
            "type": "Feature", 
            "properties": {
              "ville": "PLOUNEOUR-TREZ", 
              "name": "R\u00eaves de Mer - Kermor B3 & Maison de la Baie"
            }
          }, 
          {
            "geometry": {
              "type": "Point", 
              "coordinates": [
                -4.3175722, 
                48.65082509999481
              ]
            }, 
            "type": "Feature", 
            "properties": {
              "ville": "PLOUNEOUR-TREZ", 
              "name": "Kerurus Voile et Vent"
            }
          }, 
          {
            "geometry": {
              "type": "Point", 
              "coordinates": [
                -4.388805699999995, 
                48.646240299994815
              ]
            }, 
            "type": "Feature", 
            "properties": {
              "ville": "KERLOUAN", 
              "name": "Trechou Surf Club"
            }
          }, 
          {
            "geometry": {
              "type": "Point", 
              "coordinates": [
                -4.1919179999999985, 
                48.65280499999481
              ]
            }, 
            "type": "Feature", 
            "properties": {
              "ville": "PLOUESCAT", 
              "name": "Adrien Philip"
            }
          }, 
          {
            "geometry": {
              "type": "Point", 
              "coordinates": [
                -4.400470730975162, 
                48.65419035740021
              ]
            }, 
            "type": "Feature", 
            "properties": {
              "ville": "KERLOUAN", 
              "name": "PAGAN SURF SCHOOL"
            }
          }
        ]
      }
    }, 
    {
      "geometry": {
        "type": "Point", 
        "coordinates": [
          -4.383894673620724, 
          48.66089143162974
        ]
      }, 
      "type": "Feature", 
      "properties": {
        "nb_stationnement_a_proximite": 203, 
        "name": "Kerlouan", 
        "area": 4339.481023766566, 
        "magasin_plaisance": [], 
        "cale_a_proximite": 0, 
        "activite_nautique": [
          {
            "geometry": {
              "type": "Point", 
              "coordinates": [
                -4.328065600000001, 
                48.6731299999948
              ]
            }, 
            "type": "Feature", 
            "properties": {
              "ville": "BRIGNOGAN-PLAGE", 
              "name": "Centre Nautique de Brignogan-Plages"
            }
          }, 
          {
            "geometry": {
              "type": "Point", 
              "coordinates": [
                -4.303459000000001, 
                48.65268999999483
              ]
            }, 
            "type": "Feature", 
            "properties": {
              "ville": "PLOUNEOUR-TREZ", 
              "name": "R\u00eaves de Mer - Kermor B3 & Maison de la Baie"
            }
          }, 
          {
            "geometry": {
              "type": "Point", 
              "coordinates": [
                -4.507926, 
                48.63002899999482
              ]
            }, 
            "type": "Feature", 
            "properties": {
              "ville": "PLOUGUERNEAU", 
              "name": "Korejou Plong\u00e9e"
            }
          }, 
          {
            "geometry": {
              "type": "Point", 
              "coordinates": [
                -4.3175722, 
                48.65082509999481
              ]
            }, 
            "type": "Feature", 
            "properties": {
              "ville": "PLOUNEOUR-TREZ", 
              "name": "Kerurus Voile et Vent"
            }
          }, 
          {
            "geometry": {
              "type": "Point", 
              "coordinates": [
                -4.388805699999995, 
                48.646240299994815
              ]
            }, 
            "type": "Feature", 
            "properties": {
              "ville": "KERLOUAN", 
              "name": "Trechou Surf Club"
            }
          }, 
          {
            "geometry": {
              "type": "Point", 
              "coordinates": [
                -4.400470730975162, 
                48.65419035740021
              ]
            }, 
            "type": "Feature", 
            "properties": {
              "ville": "KERLOUAN", 
              "name": "PAGAN SURF SCHOOL"
            }
          }
        ]
      }
    }, 
    {
      "geometry": {
        "type": "Point", 
        "coordinates": [
          -4.389244265796965, 
          48.660083615181165
        ]
      }, 
      "type": "Feature", 
      "properties": {
        "nb_stationnement_a_proximite": 174, 
        "name": "Kerlouan", 
        "area": 2262.983090431342, 
        "magasin_plaisance": [], 
        "cale_a_proximite": 0, 
        "activite_nautique": [
          {
            "geometry": {
              "type": "Point", 
              "coordinates": [
                -4.328065600000001, 
                48.6731299999948
              ]
            }, 
            "type": "Feature", 
            "properties": {
              "ville": "BRIGNOGAN-PLAGE", 
              "name": "Centre Nautique de Brignogan-Plages"
            }
          }, 
          {
            "geometry": {
              "type": "Point", 
              "coordinates": [
                -4.303459000000001, 
                48.65268999999483
              ]
            }, 
            "type": "Feature", 
            "properties": {
              "ville": "PLOUNEOUR-TREZ", 
              "name": "R\u00eaves de Mer - Kermor B3 & Maison de la Baie"
            }
          }, 
          {
            "geometry": {
              "type": "Point", 
              "coordinates": [
                -4.507926, 
                48.63002899999482
              ]
            }, 
            "type": "Feature", 
            "properties": {
              "ville": "PLOUGUERNEAU", 
              "name": "Korejou Plong\u00e9e"
            }
          }, 
          {
            "geometry": {
              "type": "Point", 
              "coordinates": [
                -4.518287000000001, 
                48.633651999994825
              ]
            }, 
            "type": "Feature", 
            "properties": {
              "ville": "PLOUGUERNEAU", 
              "name": "Club Nautique - Plouguerneau"
            }
          }, 
          {
            "geometry": {
              "type": "Point", 
              "coordinates": [
                -4.3175722, 
                48.65082509999481
              ]
            }, 
            "type": "Feature", 
            "properties": {
              "ville": "PLOUNEOUR-TREZ", 
              "name": "Kerurus Voile et Vent"
            }
          }, 
          {
            "geometry": {
              "type": "Point", 
              "coordinates": [
                -4.388805699999995, 
                48.646240299994815
              ]
            }, 
            "type": "Feature", 
            "properties": {
              "ville": "KERLOUAN", 
              "name": "Trechou Surf Club"
            }
          }, 
          {
            "geometry": {
              "type": "Point", 
              "coordinates": [
                -4.400470730975162, 
                48.65419035740021
              ]
            }, 
            "type": "Feature", 
            "properties": {
              "ville": "KERLOUAN", 
              "name": "PAGAN SURF SCHOOL"
            }
          }
        ]
      }
    }, 
    {
      "geometry": {
        "type": "Point", 
        "coordinates": [
          -3.9221943950395115, 
          48.682294670356185
        ]
      }, 
      "type": "Feature", 
      "properties": {
        "nb_stationnement_a_proximite": 315, 
        "name": "Carantec", 
        "area": 9563.324713998052, 
        "magasin_plaisance": [
          {
            "geometry": {
              "type": "Point", 
              "coordinates": [
                -3.9805358999999965, 
                48.72274919999477
              ]
            }, 
            "type": "Feature", 
            "properties": {
              "ville": "ROSCOFF", 
              "cpost": "29680", 
              "name": "COMPTOIR DE LA MER"
            }
          }, 
          {
            "geometry": {
              "type": "Point", 
              "coordinates": [
                -3.9139114999999998, 
                48.6670451999948
              ]
            }, 
            "type": "Feature", 
            "properties": {
              "ville": "CARANTEC", 
              "cpost": "29660", 
              "name": "COMPTOIR DE LA MER"
            }
          }, 
          {
            "geometry": {
              "type": "Point", 
              "coordinates": [
                -3.830669100000001, 
                48.70842749999478
              ]
            }, 
            "type": "Feature", 
            "properties": {
              "ville": "PLOUGASNOU", 
              "cpost": "29630", 
              "name": "COMPTOIR DE LA MER"
            }
          }, 
          {
            "geometry": {
              "type": "Point", 
              "coordinates": [
                -3.9694778999999976, 
                48.72268229999477
              ]
            }, 
            "type": "Feature", 
            "properties": {
              "ville": "ROSCOFF", 
              "cpost": "29680", 
              "name": "COOPANORD"
            }
          }
        ], 
        "cale_a_proximite": 0, 
        "activite_nautique": [
          {
            "geometry": {
              "type": "Point", 
              "coordinates": [
                -3.830622126100188, 
                48.71078192650305
              ]
            }, 
            "type": "Feature", 
            "properties": {
              "ville": "PLOUGASNOU", 
              "name": "Ecole de plong\u00e9e de Plougasnou"
            }
          }, 
          {
            "geometry": {
              "type": "Point", 
              "coordinates": [
                -3.8317649000000022, 
                48.708818199994795
              ]
            }, 
            "type": "Feature", 
            "properties": {
              "ville": "PLOUGASNOU", 
              "name": "Soci\u00e9t\u00e9 des R\u00e9gates Terenez"
            }
          }, 
          {
            "geometry": {
              "type": "Point", 
              "coordinates": [
                -3.9115595, 
                48.65790379999482
              ]
            }, 
            "type": "Feature", 
            "properties": {
              "ville": "CARANTEC", 
              "name": "Club nautique de Carantec"
            }
          }, 
          {
            "geometry": {
              "type": "Point", 
              "coordinates": [
                -3.9115595, 
                48.65790379999482
              ]
            }, 
            "type": "Feature", 
            "properties": {
              "ville": "CARANTEC", 
              "name": "Association Carantec Nautisme"
            }
          }, 
          {
            "geometry": {
              "type": "Point", 
              "coordinates": [
                -3.982923199999999, 
                48.72525809999477
              ]
            }, 
            "type": "Feature", 
            "properties": {
              "ville": "ROSCOFF", 
              "name": "Centre Nautique de Roscoff"
            }
          }, 
          {
            "geometry": {
              "type": "Point", 
              "coordinates": [
                -3.9863550999999986, 
                48.68558439999479
              ]
            }, 
            "type": "Feature", 
            "properties": {
              "ville": "SAINT-POL-DE-LEON", 
              "name": "Centre Nautique de Saint-Pol-de-Leon"
            }
          }, 
          {
            "geometry": {
              "type": "Point", 
              "coordinates": [
                -4.0555432999999965, 
                48.694104299994784
              ]
            }, 
            "type": "Feature", 
            "properties": {
              "ville": "SANTEC", 
              "name": "R\u00eaves de Mer - Centre Nature Bon Vent & Centre Nautique Santec"
            }
          }, 
          {
            "geometry": {
              "type": "Point", 
              "coordinates": [
                -4.048701200000001, 
                48.6631815999948
              ]
            }, 
            "type": "Feature", 
            "properties": {
              "ville": "PLOUGOULM", 
              "name": "Kite Sans Frontiere"
            }
          }, 
          {
            "geometry": {
              "type": "Point", 
              "coordinates": [
                -4.009543999999998, 
                48.71524339999478
              ]
            }, 
            "type": "Feature", 
            "properties": {
              "ville": "ROSCOFF", 
              "name": "Mille Nautique"
            }
          }, 
          {
            "geometry": {
              "type": "Point", 
              "coordinates": [
                -3.9115595, 
                48.65790379999482
              ]
            }, 
            "type": "Feature", 
            "properties": {
              "ville": "CARANTEC", 
              "name": "Club d'Aviron Carantecois"
            }
          }
        ]
      }
    }, 
    {
      "geometry": {
        "type": "Point", 
        "coordinates": [
          -4.421054203458729, 
          48.65374325881951
        ]
      }, 
      "type": "Feature", 
      "properties": {
        "nb_stationnement_a_proximite": 52, 
        "name": "Kerlouan", 
        "area": 4214.672685014084, 
        "magasin_plaisance": [], 
        "cale_a_proximite": 0, 
        "activite_nautique": [
          {
            "geometry": {
              "type": "Point", 
              "coordinates": [
                -4.328065600000001, 
                48.6731299999948
              ]
            }, 
            "type": "Feature", 
            "properties": {
              "ville": "BRIGNOGAN-PLAGE", 
              "name": "Centre Nautique de Brignogan-Plages"
            }
          }, 
          {
            "geometry": {
              "type": "Point", 
              "coordinates": [
                -4.303459000000001, 
                48.65268999999483
              ]
            }, 
            "type": "Feature", 
            "properties": {
              "ville": "PLOUNEOUR-TREZ", 
              "name": "R\u00eaves de Mer - Kermor B3 & Maison de la Baie"
            }
          }, 
          {
            "geometry": {
              "type": "Point", 
              "coordinates": [
                -4.507926, 
                48.63002899999482
              ]
            }, 
            "type": "Feature", 
            "properties": {
              "ville": "PLOUGUERNEAU", 
              "name": "Korejou Plong\u00e9e"
            }
          },