{
  "type": "FeatureCollection", 
  "features": [
    {
      "geometry": {
        "type": "Point", 
        "coordinates": [
          -4.106097880393687, 
          48.69346226033638
        ]
      }, 
      "type": "Feature", 
      "properties": {
        "nb_stationnement_a_proximite": 67, 
        "name": "Cl\u00e9der", 
        "area": 4156.864345964044, 
        "magasin_plaisance": {
          "type": "FeatureCollection", 
          "features": [
            {
              "geometry": {
                "type": "Point", 
                "coordinates": [
                  -4.077185099999999, 
                  48.68805669999479
                ]
              }, 
              "type": "Feature", 
              "properties": {
                "ville": "SIBIRIL", 
                "cpost": "29250", 
                "name": "LES CASIERS D'ARMORIQUE"
              }
            }, 
            {
              "geometry": {
                "type": "Point", 
                "coordinates": [
                  -3.9805358999999965, 
                  48.72274919999477
                ]
              }, 
              "type": "Feature", 
              "properties": {
                "ville": "ROSCOFF", 
                "cpost": "29680", 
                "name": "COMPTOIR DE LA MER"
              }
            }
          ]
        }, 
        "cale_a_proximite": 0, 
        "stationnements": {
          "type": "FeatureCollection", 
          "features": [
            {
              "geometry": {
                "type": "Point", 
                "coordinates": [
                  -4.106638877276599, 
                  48.693182201186865
                ]
              }, 
              "type": "Feature", 
              "properties": {
                "capacite": 36, 
                "lieu-dit": "GROAC H ZU(CLEDER)"
              }
            }, 
            {
              "geometry": {
                "type": "Point", 
                "coordinates": [
                  -4.10600655481223, 
                  48.6929815708792
                ]
              }, 
              "type": "Feature", 
              "properties": {
                "capacite": 31, 
                "lieu-dit": "GROAC H ZU(CLEDER)"
              }
            }
          ]
        }, 
        "activite_nautique": {
          "type": "FeatureCollection", 
          "features": [
            {
              "geometry": {
                "type": "Point", 
                "coordinates": [
                  -4.209481100000001, 
                  48.663961399994825
                ]
              }, 
              "type": "Feature", 
              "properties": {
                "ville": "PLOUESCAT", 
                "name": "Centre Nautique Municipal de Plouescat"
              }
            }, 
            {
              "geometry": {
                "type": "Point", 
                "coordinates": [
                  -4.103033, 
                  48.662654999994835
                ]
              }, 
              "type": "Feature", 
              "properties": {
                "ville": "CLEDER", 
                "name": "Club nautique Cl\u00e9derois"
              }
            }, 
            {
              "geometry": {
                "type": "Point", 
                "coordinates": [
                  -3.982923199999999, 
                  48.72525809999477
                ]
              }, 
              "type": "Feature", 
              "properties": {
                "ville": "ROSCOFF", 
                "name": "Centre Nautique de Roscoff"
              }
            }, 
            {
              "geometry": {
                "type": "Point", 
                "coordinates": [
                  -3.9863550999999986, 
                  48.68558439999479
                ]
              }, 
              "type": "Feature", 
              "properties": {
                "ville": "SAINT-POL-DE-LEON", 
                "name": "Centre Nautique de Saint-Pol-de-Leon"
              }
            }, 
            {
              "geometry": {
                "type": "Point", 
                "coordinates": [
                  -4.130034215123233, 
                  48.69262641394892
                ]
              }, 
              "type": "Feature", 
              "properties": {
                "ville": "CLEDER", 
                "name": "Bretagne Atlantic Yachting"
              }
            }, 
            {
              "geometry": {
                "type": "Point", 
                "coordinates": [
                  -4.0555432999999965, 
                  48.694104299994784
                ]
              }, 
              "type": "Feature", 
              "properties": {
                "ville": "SANTEC", 
                "name": "R\u00eaves de Mer - Centre Nature Bon Vent & Centre Nautique Santec"
              }
            }, 
            {
              "geometry": {
                "type": "Point", 
                "coordinates": [
                  -4.155214999999999, 
                  48.68916669999478
                ]
              }, 
              "type": "Feature", 
              "properties": {
                "ville": "CLEDER", 
                "name": "Slash Paradise"
              }
            }, 
            {
              "geometry": {
                "type": "Point", 
                "coordinates": [
                  -4.048701200000001, 
                  48.6631815999948
                ]
              }, 
              "type": "Feature", 
              "properties": {
                "ville": "PLOUGOULM", 
                "name": "Kite Sans Frontiere"
              }
            }, 
            {
              "geometry": {
                "type": "Point", 
                "coordinates": [
                  -4.009543999999998, 
                  48.71524339999478
                ]
              }, 
              "type": "Feature", 
              "properties": {
                "ville": "ROSCOFF", 
                "name": "Mille Nautique"
              }
            }, 
            {
              "geometry": {
                "type": "Point", 
                "coordinates": [
                  -4.082943500000001, 
                  48.6912675999948
                ]
              }, 
              "type": "Feature", 
              "properties": {
                "ville": "SIBIRIL", 
                "name": "Ecole de Surf du Leon"
              }
            }
          ]
        }
      }
    }, 
    {
      "geometry": {
        "type": "Point", 
        "coordinates": [
          -4.0070984048441955, 
          48.72520235640614
        ]
      }, 
      "type": "Feature", 
      "properties": {
        "nb_stationnement_a_proximite": 370, 
        "name": "Santec", 
        "area": 9084.251220145452, 
        "magasin_plaisance": {
          "type": "FeatureCollection", 
          "features": [
            {
              "geometry": {
                "type": "Point", 
                "coordinates": [
                  -4.077185099999999, 
                  48.68805669999479
                ]
              }, 
              "type": "Feature", 
              "properties": {
                "ville": "SIBIRIL", 
                "cpost": "29250", 
                "name": "LES CASIERS D'ARMORIQUE"
              }
            }, 
            {
              "geometry": {
                "type": "Point", 
                "coordinates": [
                  -3.9805358999999965, 
                  48.72274919999477
                ]
              }, 
              "type": "Feature", 
              "properties": {
                "ville": "ROSCOFF", 
                "cpost": "29680", 
                "name": "COMPTOIR DE LA MER"
              }
            }, 
            {
              "geometry": {
                "type": "Point", 
                "coordinates": [
                  -3.9139114999999998, 
                  48.6670451999948
                ]
              }, 
              "type": "Feature", 
              "properties": {
                "ville": "CARANTEC", 
                "cpost": "29660", 
                "name": "COMPTOIR DE LA MER"
              }
            }, 
            {
              "geometry": {
                "type": "Point", 
                "coordinates": [
                  -3.9694778999999976, 
                  48.72268229999477
                ]
              }, 
              "type": "Feature", 
              "properties": {
                "ville": "ROSCOFF", 
                "cpost": "29680", 
                "name": "COOPANORD"
              }
            }
          ]
        }, 
        "cale_a_proximite": 0, 
        "stationnements": {
          "type": "FeatureCollection", 
          "features": [
            {
              "geometry": {
                "type": "Point", 
                "coordinates": [
                  -4.006939121943471, 
                  48.722148054403675
                ]
              }, 
              "type": "Feature", 
              "properties": {
                "capacite": 50, 
                "lieu-dit": "PERHARIDI(SANTEC)"
              }
            }, 
            {
              "geometry": {
                "type": "Point", 
                "coordinates": [
                  -4.006483172944326, 
                  48.72266130400142
                ]
              }, 
              "type": "Feature", 
              "properties": {
                "capacite": 20, 
                "lieu-dit": "PERHARIDI(SANTEC)"
              }
            }, 
            {
              "geometry": {
                "type": "Point", 
                "coordinates": [
                  -4.005521054307694, 
                  48.72273927680475
                ]
              }, 
              "type": "Feature", 
              "properties": {
                "capacite": 44, 
                "lieu-dit": "PERHARIDI(SANTEC)"
              }
            }, 
            {
              "geometry": {
                "type": "Point", 
                "coordinates": [
                  -4.0055864883898735, 
                  48.724451649730135
                ]
              }, 
              "type": "Feature", 
              "properties": {
                "capacite": 20, 
                "lieu-dit": "PERHARIDI(SANTEC)"
              }
            }, 
            {
              "geometry": {
                "type": "Point", 
                "coordinates": [
                  -4.00675220736503, 
                  48.72363817116605
                ]
              }, 
              "type": "Feature", 
              "properties": {
                "capacite": 53, 
                "lieu-dit": "PERHARIDI(SANTEC)"
              }
            }, 
            {
              "geometry": {
                "type": "Point", 
                "coordinates": [
                  -4.00767432333585, 
                  48.719570483721235
                ]
              }, 
              "type": "Feature", 
              "properties": {
                "capacite": 183, 
                "lieu-dit": "PERHARIDI(SANTEC)"
              }
            }
          ]
        }, 
        "activite_nautique": {
          "type": "FeatureCollection", 
          "features": [
            {
              "geometry": {
                "type": "Point", 
                "coordinates": [
                  -4.103033, 
                  48.662654999994835
                ]
              }, 
              "type": "Feature", 
              "properties": {
                "ville": "CLEDER", 
                "name": "Club nautique Cl\u00e9derois"
              }
            }, 
            {
              "geometry": {
                "type": "Point", 
                "coordinates": [
                  -3.982923199999999, 
                  48.72525809999477
                ]
              }, 
              "type": "Feature", 
              "properties": {
                "ville": "ROSCOFF", 
                "name": "Centre Nautique de Roscoff"
              }
            }, 
            {
              "geometry": {
                "type": "Point", 
                "coordinates": [
                  -3.9863550999999986, 
                  48.68558439999479
                ]
              }, 
              "type": "Feature", 
              "properties": {
                "ville": "SAINT-POL-DE-LEON", 
                "name": "Centre Nautique de Saint-Pol-de-Leon"
              }
            }, 
            {
              "geometry": {
                "type": "Point", 
                "coordinates": [
                  -4.130034215123233, 
                  48.69262641394892
                ]
              }, 
              "type": "Feature", 
              "properties": {
                "ville": "CLEDER", 
                "name": "Bretagne Atlantic Yachting"
              }
            }, 
            {
              "geometry": {
                "type": "Point", 
                "coordinates": [
                  -4.0555432999999965, 
                  48.694104299994784
                ]
              }, 
              "type": "Feature", 
              "properties": {
                "ville": "SANTEC", 
                "name": "R\u00eaves de Mer - Centre Nature Bon Vent & Centre Nautique Santec"
              }
            }, 
            {
              "geometry": {
                "type": "Point", 
                "coordinates": [
                  -4.048701200000001, 
                  48.6631815999948
                ]
              }, 
              "type": "Feature", 
              "properties": {
                "ville": "PLOUGOULM", 
                "name": "Kite Sans Frontiere"
              }
            }, 
            {
              "geometry": {
                "type": "Point", 
                "coordinates": [
                  -4.009543999999998, 
                  48.71524339999478
                ]
              }, 
              "type": "Feature", 
              "properties": {
                "ville": "ROSCOFF", 
                "name": "Mille Nautique"
              }
            }, 
            {
              "geometry": {
                "type": "Point", 
                "coordinates": [
                  -4.082943500000001, 
                  48.6912675999948
                ]
              }, 
              "type": "Feature", 
              "properties": {
                "ville": "SIBIRIL", 
                "name": "Ecole de Surf du Leon"
              }
            }, 
            {
              "geometry": {
                "type": "Point", 
                "coordinates": [
                  -4.061814000000001, 
                  48.66459399999483
                ]
              }, 
              "type": "Feature", 
              "properties": {
                "ville": "ILE-MOLENE", 
                "name": "Breizh Kayak Evasion"
              }
            }, 
            {
              "geometry": {
                "type": "Point", 
                "coordinates": [
                  -3.9697580000000023, 
                  48.68099299999481
                ]
              }, 
              "type": "Feature", 
              "properties": {
                "ville": "SAINT-POL-DE-LEON", 
                "name": "Yole Club Saint-Politain"
              }
            }
          ]
        }
      }
    }, 
    {
      "geometry": {
        "type": "Point", 
        "coordinates": [
          -4.005430605616046, 
          48.72627495840262
        ]
      }, 
      "type": "Feature", 
      "properties": {
        "nb_stationnement_a_proximite": 187, 
        "name": "Roscoff", 
        "area": 3501.746083286591, 
        "magasin_plaisance": {
          "type": "FeatureCollection", 
          "features": [
            {
              "geometry": {
                "type": "Point", 
                "coordinates": [
                  -4.077185099999999, 
                  48.68805669999479
                ]
              }, 
              "type": "Feature", 
              "properties": {
                "ville": "SIBIRIL", 
                "cpost": "29250", 
                "name": "LES CASIERS D'ARMORIQUE"
              }
            }, 
            {
              "geometry": {
                "type": "Point", 
                "coordinates": [
                  -3.9805358999999965, 
                  48.72274919999477
                ]
              }, 
              "type": "Feature", 
              "properties": {
                "ville": "ROSCOFF", 
                "cpost": "29680", 
                "name": "COMPTOIR DE LA MER"
              }
            }, 
            {
              "geometry": {
                "type": "Point", 
                "coordinates": [
                  -3.9139114999999998, 
                  48.6670451999948
                ]
              }, 
              "type": "Feature", 
              "properties": {
                "ville": "CARANTEC", 
                "cpost": "29660", 
                "name": "COMPTOIR DE LA MER"
              }
            }, 
            {
              "geometry": {
                "type": "Point", 
                "coordinates": [
                  -3.9694778999999976, 
                  48.72268229999477
                ]
              }, 
              "type": "Feature", 
              "properties": {
                "ville": "ROSCOFF", 
                "cpost": "29680", 
                "name": "COOPANORD"
              }
            }
          ]
        }, 
        "cale_a_proximite": 0, 
        "stationnements": {
          "type": "FeatureCollection", 
          "features": [
            {
              "geometry": {
                "type": "Point", 
                "coordinates": [
                  -4.006939121943471, 
                  48.722148054403675
                ]
              }, 
              "type": "Feature", 
              "properties": {
                "capacite": 50, 
                "lieu-dit": "PERHARIDI(SANTEC)"
              }
            }, 
            {
              "geometry": {
                "type": "Point", 
                "coordinates": [
                  -4.006483172944326, 
                  48.72266130400142
                ]
              }, 
              "type": "Feature", 
              "properties": {
                "capacite": 20, 
                "lieu-dit": "PERHARIDI(SANTEC)"
              }
            }, 
            {
              "geometry": {
                "type": "Point", 
                "coordinates": [
                  -4.005521054307694, 
                  48.72273927680475
                ]
              }, 
              "type": "Feature", 
              "properties": {
                "capacite": 44, 
                "lieu-dit": "PERHARIDI(SANTEC)"
              }
            }, 
            {
              "geometry": {
                "type": "Point", 
                "coordinates": [
                  -4.0055864883898735, 
                  48.724451649730135
                ]
              }, 
              "type": "Feature", 
              "properties": {
                "capacite": 20, 
                "lieu-dit": "PERHARIDI(SANTEC)"
              }
            }, 
            {
              "geometry": {
                "type": "Point", 
                "coordinates": [
                  -4.00675220736503, 
                  48.72363817116605
                ]
              }, 
              "type": "Feature", 
              "properties": {
                "capacite": 53, 
                "lieu-dit": "PERHARIDI(SANTEC)"
              }
            }
          ]
        }, 
        "activite_nautique": {
          "type": "FeatureCollection", 
          "features": [
            {
              "geometry": {
                "type": "Point", 
                "coordinates": [
                  -3.982923199999999, 
                  48.72525809999477
                ]
              }, 
              "type": "Feature", 
              "properties": {
                "ville": "ROSCOFF", 
                "name": "Centre Nautique de Roscoff"
              }
            }, 
            {
              "geometry": {
                "type": "Point", 
                "coordinates": [
                  -3.9863550999999986, 
                  48.68558439999479
                ]
              }, 
              "type": "Feature", 
              "properties": {
                "ville": "SAINT-POL-DE-LEON", 
                "name": "Centre Nautique de Saint-Pol-de-Leon"
              }
            }, 
            {
              "geometry": {
                "type": "Point", 
                "coordinates": [
                  -4.130034215123233, 
                  48.69262641394892
                ]
              }, 
              "type": "Feature", 
              "properties": {
                "ville": "CLEDER", 
                "name": "Bretagne Atlantic Yachting"
              }
            }, 
            {
              "geometry": {
                "type": "Point", 
                "coordinates": [
                  -4.0555432999999965, 
                  48.694104299994784
                ]
              }, 
              "type": "Feature", 
              "properties": {
                "ville": "SANTEC", 
                "name": "R\u00eaves de Mer - Centre Nature Bon Vent & Centre Nautique Santec"
              }
            }, 
            {
              "geometry": {
                "type": "Point", 
                "coordinates": [
                  -4.048701200000001, 
                  48.6631815999948
                ]
              }, 
              "type": "Feature", 
              "properties": {
                "ville": "PLOUGOULM", 
                "name": "Kite Sans Frontiere"
              }
            }, 
            {
              "geometry": {
                "type": "Point", 
                "coordinates": [
                  -4.009543999999998, 
                  48.71524339999478
                ]
              }, 
              "type": "Feature", 
              "properties": {
                "ville": "ROSCOFF", 
                "name": "Mille Nautique"
              }
            }, 
            {
              "geometry": {
                "type": "Point", 
                "coordinates": [
                  -4.082943500000001, 
                  48.6912675999948
                ]
              }, 
              "type": "Feature", 
              "properties": {
                "ville": "SIBIRIL", 
                "name": "Ecole de Surf du Leon"
              }
            }, 
            {
              "geometry": {
                "type": "Point", 
                "coordinates": [
                  -4.061814000000001, 
                  48.66459399999483
                ]
              }, 
              "type": "Feature", 
              "properties": {
                "ville": "ILE-MOLENE", 
                "name": "Breizh Kayak Evasion"
              }
            }, 
            {
              "geometry": {
                "type": "Point", 
                "coordinates": [
                  -3.9697580000000023, 
                  48.68099299999481
                ]
              }, 
              "type": "Feature", 
              "properties": {
                "ville": "SAINT-POL-DE-LEON", 
                "name": "Yole Club Saint-Politain"
              }
            }, 
            {
              "geometry": {
                "type": "Point", 
                "coordinates": [
                  -3.949480000000003, 
                  48.64532299999483
                ]
              }, 
              "type": "Feature", 
              "properties": {
                "ville": "HENVIC", 
                "name": "Nunivak Henvic"
              }
            }
          ]
        }
      }
    }, 
    {
      "geometry": {
        "type": "Point", 
        "coordinates": [
          -4.010822588533497, 
          48.71991858629854
        ]
      }, 
      "type": "Feature", 
      "properties": {
        "nb_stationnement_a_proximite": 662, 
        "name": "Santec", 
        "area": 2798.5647021256445, 
        "magasin_plaisance": {
          "type": "FeatureCollection", 
          "features": [
            {
              "geometry": {
                "type": "Point", 
                "coordinates": [
                  -4.077185099999999, 
                  48.68805669999479
                ]
              }, 
              "type": "Feature", 
              "properties": {
                "ville": "SIBIRIL", 
                "cpost": "29250", 
                "name": "LES CASIERS D'ARMORIQUE"
              }
            }, 
            {
              "geometry": {
                "type": "Point", 
                "coordinates": [
                  -3.9805358999999965, 
                  48.72274919999477
                ]
              }, 
              "type": "Feature", 
              "properties": {
                "ville": "ROSCOFF", 
                "cpost": "29680", 
                "name": "COMPTOIR DE LA MER"
              }
            }, 
            {
              "geometry": {
                "type": "Point", 
                "coordinates": [
                  -3.9139114999999998, 
                  48.6670451999948
                ]
              }, 
              "type": "Feature", 
              "properties": {
                "ville": "CARANTEC", 
                "cpost": "29660", 
                "name": "COMPTOIR DE LA MER"
              }
            }, 
            {
              "geometry": {
                "type": "Point", 
                "coordinates": [
                  -3.9694778999999976, 
                  48.72268229999477
                ]
              }, 
              "type": "Feature", 
              "properties": {
                "ville": "ROSCOFF", 
                "cpost": "29680", 
                "name": "COOPANORD"
              }
            }
          ]
        }, 
        "cale_a_proximite": 0, 
        "stationnements": {
          "type": "FeatureCollection", 
          "features": [
            {
              "geometry": {
                "type": "Point", 
                "coordinates": [
                  -4.006939121943471, 
                  48.722148054403675
                ]
              }, 
              "type": "Feature", 
              "properties": {
                "capacite": 50, 
                "lieu-dit": "PERHARIDI(SANTEC)"
              }
            }, 
            {
              "geometry": {
                "type": "Point", 
                "coordinates": [
                  -4.006483172944326, 
                  48.72266130400142
                ]
              }, 
              "type": "Feature", 
              "properties": {
                "capacite": 20, 
                "lieu-dit": "PERHARIDI(SANTEC)"
              }
            }, 
            {
              "geometry": {
                "type": "Point", 
                "coordinates": [
                  -4.005521054307694, 
                  48.72273927680475
                ]
              }, 
              "type": "Feature", 
              "properties": {
                "capacite": 44, 
                "lieu-dit": "PERHARIDI(SANTEC)"
              }
            }, 
            {
              "geometry": {
                "type": "Point", 
                "coordinates": [
                  -4.0055864883898735, 
                  48.724451649730135
                ]
              }, 
              "type": "Feature", 
              "properties": {
                "capacite": 20, 
                "lieu-dit": "PERHARIDI(SANTEC)"
              }
            }, 
            {
              "geometry": {
                "type": "Point", 
                "coordinates": [
                  -4.00675220736503, 
                  48.72363817116605
                ]
              }, 
              "type": "Feature", 
              "properties": {
                "capacite": 53, 
                "lieu-dit": "PERHARIDI(SANTEC)"
              }
            }, 
            {
              "geometry": {
                "type": "Point", 
                "coordinates": [
                  -4.00767432333585, 
                  48.719570483721235
                ]
              }, 
              "type": "Feature", 
              "properties": {
                "capacite": 183, 
                "lieu-dit": "PERHARIDI(SANTEC)"
              }
            }, 
            {
              "geometry": {
                "type": "Point", 
                "coordinates": [
                  -4.012229104794128, 
                  48.7145783608469
                ]
              }, 
              "type": "Feature", 
              "properties": {
                "capacite": 146, 
                "lieu-dit": "LES EMBRUNS(SANTEC)"
              }
            }, 
            {
              "geometry": {
                "type": "Point", 
                "coordinates": [
                  -4.012229104794128, 
                  48.7145783608469
                ]
              }, 
              "type": "Feature", 
              "properties": {
                "capacite": 146, 
                "lieu-dit": "LES EMBRUNS(SANTEC)"
              }
            }
          ]
        }, 
        "activite_nautique": {
          "type": "FeatureCollection", 
          "features": [
            {
              "geometry": {
                "type": "Point", 
                "coordinates": [
                  -4.103033, 
                  48.662654999994835
                ]
              }, 
              "type": "Feature", 
              "properties": {
                "ville": "CLEDER", 
                "name": "Club nautique Cl\u00e9derois"
              }
            }, 
            {
              "geometry": {
                "type": "Point", 
                "coordinates": [
                  -3.982923199999999, 
                  48.72525809999477
                ]
              }, 
              "type": "Feature", 
              "properties": {
                "ville": "ROSCOFF", 
                "name": "Centre Nautique de Roscoff"
              }
            }, 
            {
              "geometry": {
                "type": "Point", 
                "coordinates": [
                  -3.9863550999999986, 
                  48.68558439999479
                ]
              }, 
              "type": "Feature", 
              "properties": {
                "ville": "SAINT-POL-DE-LEON", 
                "name": "Centre Nautique de Saint-Pol-de-Leon"
              }
            }, 
            {
              "geometry": {
                "type": "Point", 
                "coordinates": [
                  -4.130034215123233, 
                  48.69262641394892
                ]
              }, 
              "type": "Feature", 
              "properties": {
                "ville": "CLEDER", 
                "name": "Bretagne Atlantic Yachting"
              }
            }, 
            {
              "geometry": {
                "type": "Point", 
                "coordinates": [
                  -4.0555432999999965, 
                  48.694104299994784
                ]
              }, 
              "type": "Feature", 
              "properties": {
                "ville": "SANTEC", 
                "name": "R\u00eaves de Mer - Centre Nature Bon Vent & Centre Nautique Santec"
              }
            }, 
            {
              "geometry": {
                "type": "Point", 
                "coordinates": [
                  -4.048701200000001, 
                  48.6631815999948
                ]
              }, 
              "type": "Feature", 
              "properties": {
                "ville": "PLOUGOULM", 
                "name": "Kite Sans Frontiere"
              }
            }, 
            {
              "geometry": {
                "type": "Point", 
                "coordinates": [
                  -4.009543999999998, 
                  48.71524339999478
                ]
              }, 
              "type": "Feature", 
              "properties": {
                "ville": "ROSCOFF", 
                "name": "Mille Nautique"
              }
            }, 
            {
              "geometry": {
                "type": "Point", 
                "coordinates": [
                  -4.082943500000001, 
                  48.6912675999948
                ]
              }, 
              "type": "Feature", 
              "properties": {
                "ville": "SIBIRIL", 
                "name": "Ecole de Surf du Leon"
              }
            }, 
            {
              "geometry": {
                "type": "Point", 
                "coordinates": [
                  -4.061814000000001, 
                  48.66459399999483
                ]
              }, 
              "type": "Feature", 
              "properties": {
                "ville": "ILE-MOLENE", 
                "name": "Breizh Kayak Evasion"
              }
            }, 
            {
              "geometry": {
                "type": "Point", 
                "coordinates": [
                  -3.9697580000000023, 
                  48.68099299999481
                ]
              }, 
              "type": "Feature", 
              "properties": {
                "ville": "SAINT-POL-DE-LEON", 
                "name": "Yole Club Saint-Politain"
              }
            }
          ]
        }
      }
    }, 
    {
      "geometry": {
        "type": "Point", 
        "coordinates": [
          -4.020699533190411, 
          48.712916999482516
        ]
      }, 
      "type": "Feature", 
      "properties": {
        "nb_stationnement_a_proximite": 740, 
        "name": "Santec", 
        "area": 43914.840692148886, 
        "magasin_plaisance": {
          "type": "FeatureCollection", 
          "features": [
            {
              "geometry": {
                "type": "Point", 
                "coordinates": [
                  -4.077185099999999, 
                  48.68805669999479
                ]
              }, 
              "type": "Feature", 
              "properties": {
                "ville": "SIBIRIL", 
                "cpost": "29250", 
                "name": "LES CASIERS D'ARMORIQUE"
              }
            }, 
            {
              "geometry": {
                "type": "Point", 
                "coordinates": [
                  -3.9805358999999965, 
                  48.72274919999477
                ]
              }, 
              "type": "Feature", 
              "properties": {
                "ville": "ROSCOFF", 
                "cpost": "29680", 
                "name": "COMPTOIR DE LA MER"
              }
            }, 
            {
              "geometry": {
                "type": "Point", 
                "coordinates": [
                  -3.9139114999999998, 
                  48.6670451999948
                ]
              }, 
              "type": "Feature", 
              "properties": {
                "ville": "CARANTEC", 
                "cpost": "29660", 
                "name": "COMPTOIR DE LA MER"
              }
            }, 
            {
              "geometry": {
                "type": "Point", 
                "coordinates": [
                  -3.9694778999999976, 
                  48.72268229999477
                ]
              }, 
              "type": "Feature", 
              "properties": {
                "ville": "ROSCOFF", 
                "cpost": "29680", 
                "name": "COOPANORD"
              }
            }
          ]
        }, 
        "cale_a_proximite": 0, 
        "stationnements": {
          "type": "FeatureCollection", 
          "features": [
            {
              "geometry": {
                "type": "Point", 
                "coordinates": [
                  -4.00767432333585, 
                  48.719570483721235
                ]
              }, 
              "type": "Feature", 
              "properties": {
                "capacite": 183, 
                "lieu-dit": "PERHARIDI(SANTEC)"
              }
            }, 
            {
              "geometry": {
                "type": "Point", 
                "coordinates": [
                  -4.012229104794128, 
                  48.7145783608469
                ]
              }, 
              "type": "Feature", 
              "properties": {
                "capacite": 146, 
                "lieu-dit": "LES EMBRUNS(SANTEC)"
              }
            }, 
            {
              "geometry": {
                "type": "Point", 
                "coordinates": [
                  -4.015712597754508, 
                  48.71119616970492
                ]
              }, 
              "type": "Feature", 
              "properties": {
                "capacite": 33, 
                "lieu-dit": "RUE DES DENTELLES(SANTEC)"
              }
            }, 
            {
              "geometry": {
                "type": "Point", 
                "coordinates": [
                  -4.035847528650639, 
                  48.71043873430482
                ]
              }, 
              "type": "Feature", 
              "properties": {
                "capacite": 23, 
                "lieu-dit": "CORN AL LOA(SANTEC)"
              }
            }, 
            {
              "geometry": {
                "type": "Point", 
                "coordinates": [
                  -4.035270210959204, 
                  48.70964646895921
                ]
              }, 
              "type": "Feature", 
              "properties": {
                "capacite": 25, 
                "lieu-dit": "TEVENN(SANTEC)"
              }
            }, 
            {
              "geometry": {
                "type": "Point", 
                "coordinates": [
                  -4.022259962920168, 
                  48.7109901319949
                ]
              }, 
              "type": "Feature", 
              "properties": {
                "capacite": 57, 
                "lieu-dit": "PALUD(SANTEC)"
              }
            }, 
            {
              "geometry": {
                "type": "Point", 
                "coordinates": [
                  -4.011381224875828, 
                  48.712878691914746
                ]
              }, 
              "type": "Feature", 
              "properties": {
                "capacite": 127, 
                "lieu-dit": "LES EMBRUNS(SANTEC)"
              }
            }, 
            {
              "geometry": {
                "type": "Point", 
                "coordinates": [
                  -4.012229104794128, 
                  48.7145783608469
                ]
              }, 
              "type": "Feature", 
              "properties": {
                "capacite": 146, 
                "lieu-dit": "LES EMBRUNS(SANTEC)"
              }
            }
          ]
        }, 
        "activite_nautique": {
          "type": "FeatureCollection", 
          "features": [
            {
              "geometry": {
                "type": "Point", 
                "coordinates": [
                  -4.103033, 
                  48.662654999994835
                ]
              }, 
              "type": "Feature", 
              "properties": {
                "ville": "CLEDER", 
                "name": "Club nautique Cl\u00e9derois"
              }
            }, 
            {
              "geometry": {
                "type": "Point", 
                "coordinates": [
                  -3.9115595, 
                  48.65790379999482
                ]
              }, 
              "type": "Feature", 
              "properties": {
                "ville": "CARANTEC", 
                "name": "Club nautique de Carantec"
              }
            }, 
            {
              "geometry": {
                "type": "Point", 
                "coordinates": [
                  -3.9115595, 
                  48.65790379999482
                ]
              }, 
              "type": "Feature", 
              "properties": {
                "ville": "CARANTEC", 
                "name": "Association Carantec Nautisme"
              }
            }, 
            {
              "geometry": {
                "type": "Point", 
                "coordinates": [
                  -3.982923199999999, 
                  48.72525809999477
                ]
              }, 
              "type": "Feature", 
              "properties": {
                "ville": "ROSCOFF", 
                "name": "Centre Nautique de Roscoff"
              }
            }, 
            {
              "geometry": {
                "type": "Point", 
                "coordinates": [
                  -3.9863550999999986, 
                  48.68558439999479
                ]
              }, 
              "type": "Feature", 
              "properties": {
                "ville": "SAINT-POL-DE-LEON", 
                "name": "Centre Nautique de Saint-Pol-de-Leon"
              }
            }, 
            {
              "geometry": {
                "type": "Point", 
                "coordinates": [
                  -4.130034215123233, 
                  48.69262641394892
                ]
              }, 
              "type": "Feature", 
              "properties": {
                "ville": "CLEDER", 
                "name": "Bretagne Atlantic Yachting"
              }
            }, 
            {
              "geometry": {
                "type": "Point", 
                "coordinates": [
                  -4.0555432999999965, 
                  48.694104299994784
                ]
              }, 
              "type": "Feature", 
              "properties": {
                "ville": "SANTEC", 
                "name": "R\u00eaves de Mer - Centre Nature Bon Vent & Centre Nautique Santec"
              }
            }, 
            {
              "geometry": {
                "type": "Point", 
                "coordinates": [
                  -4.155214999999999, 
                  48.68916669999478
                ]
              }, 
              "type": "Feature", 
              "properties": {
                "ville": "CLEDER", 
                "name": "Slash Paradise"
              }
            }, 
            {
              "geometry": {
                "type": "Point", 
                "coordinates": [
                  -4.048701200000001, 
                  48.6631815999948
                ]
              }, 
              "type": "Feature", 
              "properties": {
                "ville": "PLOUGOULM", 
                "name": "Kite Sans Frontiere"
              }
            }, 
            {
              "geometry": {
                "type": "Point", 
                "coordinates": [
                  -4.009543999999998, 
                  48.71524339999478
                ]
              }, 
              "type": "Feature", 
              "properties": {
                "ville": "ROSCOFF", 
                "name": "Mille Nautique"
              }
            }
          ]
        }
      }
    }, 
    {
      "geometry": {
        "type": "Point", 
        "coordinates": [
          -4.050164658466593, 
          48.705185204779994
        ]
      }, 
      "type": "Feature", 
      "properties": {
        "nb_stationnement_a_proximite": 136, 
        "name": "Santec", 
        "area": 4712.174557997496, 
        "magasin_plaisance": {
          "type": "FeatureCollection", 
          "features": [
            {
              "geometry": {
                "type": "Point", 
                "coordinates": [
                  -4.077185099999999, 
                  48.68805669999479
                ]
              }, 
              "type": "Feature", 
              "properties": {
                "ville": "SIBIRIL", 
                "cpost": "29250", 
                "name": "LES CASIERS D'ARMORIQUE"
              }
            }, 
            {
              "geometry": {
                "type": "Point", 
                "coordinates": [
                  -3.9805358999999965, 
                  48.72274919999477
                ]
              }, 
              "type": "Feature", 
              "properties": {
                "ville": "ROSCOFF", 
                "cpost": "29680", 
                "name": "COMPTOIR DE LA MER"
              }
            }, 
            {
              "geometry": {
                "type": "Point", 
                "coordinates": [
                  -3.9694778999999976, 
                  48.72268229999477
                ]
              }, 
              "type": "Feature", 
              "properties": {
                "ville": "ROSCOFF", 
                "cpost": "29680", 
                "name": "COOPANORD"
              }
            }
          ]
        }, 
        "cale_a_proximite": 0, 
        "stationnements": {
          "type": "FeatureCollection", 
          "features": [
            {
              "geometry": {
                "type": "Point", 
                "coordinates": [
                  -4.0551780696426825, 
                  48.701349085342834
                ]
              }, 
              "type": "Feature", 
              "properties": {
                "capacite": 123, 
                "lieu-dit": "DOSSEN(SANTEC)"
              }
            }, 
            {
              "geometry": {
                "type": "Point", 
                "coordinates": [
                  -4.0521430104901555, 
                  48.70374836619913
                ]
              }, 
              "type": "Feature", 
              "properties": {
                "capacite": 13, 
                "lieu-dit": "BEG AR BILLOU(SANTEC)"
              }
            }
          ]
        }, 
        "activite_nautique": {
          "type": "FeatureCollection", 
          "features": [
            {
              "geometry": {
                "type": "Point", 
                "coordinates": [
                  -4.103033, 
                  48.662654999994835
                ]
              }, 
              "type": "Feature", 
              "properties": {
                "ville": "CLEDER", 
                "name": "Club nautique Cl\u00e9derois"
              }
            }, 
            {
              "geometry": {
                "type": "Point", 
                "coordinates": [
                  -3.982923199999999, 
                  48.72525809999477
                ]
              }, 
              "type": "Feature", 
              "properties": {
                "ville": "ROSCOFF", 
                "name": "Centre Nautique de Roscoff"
              }
            }, 
            {
              "geometry": {
                "type": "Point", 
                "coordinates": [
                  -3.9863550999999986, 
                  48.68558439999479
                ]
              }, 
              "type": "Feature", 
              "properties": {
                "ville": "SAINT-POL-DE-LEON", 
                "name": "Centre Nautique de Saint-Pol-de-Leon"
              }
            }, 
            {
              "geometry": {
                "type": "Point", 
                "coordinates": [
                  -4.130034215123233, 
                  48.69262641394892
                ]
              }, 
              "type": "Feature", 
              "properties": {
                "ville": "CLEDER", 
                "name": "Bretagne Atlantic Yachting"
              }
            }, 
            {
              "geometry": {
                "type": "Point", 
                "coordinates": [
                  -4.0555432999999965, 
                  48.694104299994784
                ]
              }, 
              "type": "Feature", 
              "properties": {
                "ville": "SANTEC", 
                "name": "R\u00eaves de Mer - Centre Nature Bon Vent & Centre Nautique Santec"
              }
            }, 
            {
              "geometry": {
                "type": "Point", 
                "coordinates": [
                  -4.155214999999999, 
                  48.68916669999478
                ]
              }, 
              "type": "Feature", 
              "properties": {
                "ville": "CLEDER", 
                "name": "Slash Paradise"
              }
            }, 
            {
              "geometry": {
                "type": "Point", 
                "coordinates": [
                  -4.048701200000001, 
                  48.6631815999948
                ]
              }, 
              "type": "Feature", 
              "properties": {
                "ville": "PLOUGOULM", 
                "name": "Kite Sans Frontiere"
              }
            }, 
            {
              "geometry": {
                "type": "Point", 
                "coordinates": [
                  -4.009543999999998, 
                  48.71524339999478
                ]
              }, 
              "type": "Feature", 
              "properties": {
                "ville": "ROSCOFF", 
                "name": "Mille Nautique"
              }
            }, 
            {
              "geometry": {
                "type": "Point", 
                "coordinates": [
                  -4.082943500000001, 
                  48.6912675999948
                ]
              }, 
              "type": "Feature", 
              "properties": {
                "ville": "SIBIRIL", 
                "name": "Ecole de Surf du Leon"
              }
            }, 
            {
              "geometry": {
                "type": "Point", 
                "coordinates": [
                  -4.061814000000001, 
                  48.66459399999483
                ]
              }, 
              "type": "Feature", 
              "properties": {
                "ville": "ILE-MOLENE", 
                "name": "Breizh Kayak Evasion"
              }
            }
          ]
        }
      }
    }, 
    {
      "geometry": {
        "type": "Point", 
        "coordinates": [
          -4.141792531651149, 
          48.69333575679512
        ]
      }, 
      "type": "Feature", 
      "properties": {
        "nb_stationnement_a_proximite": 834, 
        "name": "Cl\u00e9der", 
        "area": 53170.65671176833, 
        "magasin_plaisance": {
          "type": "FeatureCollection", 
          "features": [
            {
              "geometry": {
                "type": "Point", 
                "coordinates": [
                  -4.077185099999999, 
                  48.68805669999479
                ]
              }, 
              "type": "Feature", 
              "properties": {
                "ville": "SIBIRIL", 
                "cpost": "29250", 
                "name": "LES CASIERS D'ARMORIQUE"
              }
            }
          ]
        }, 
        "cale_a_proximite": 0, 
        "stationnements": {
          "type": "FeatureCollection", 
          "features": [
            {
              "geometry": {
                "type": "Point", 
                "coordinates": [
                  -4.133363523517484, 
                  48.69153485670164
                ]
              }, 
              "type": "Feature", 
              "properties": {
                "capacite": 111, 
                "lieu-dit": "AN AMIED(CLEDER)"
              }
            }, 
            {
              "geometry": {
                "type": "Point", 
                "coordinates": [
                  -4.132847492427032, 
                  48.69316930621094
                ]
              }, 
              "type": "Feature", 
              "properties": {
                "capacite": 27, 
                "lieu-dit": "AN AMIED(CLEDER)"
              }
            }, 
            {
              "geometry": {
                "type": "Point", 
                "coordinates": [
                  -4.133856152821071, 
                  48.694050493495936
                ]
              }, 
              "type": "Feature", 
              "properties": {
                "capacite": 146, 
                "lieu-dit": "AN AMIED(CLEDER)"
              }
            }, 
            {
              "geometry": {
                "type": "Point", 
                "coordinates": [
                  -4.131824225379785, 
                  48.6949992945328
                ]
              }, 
              "type": "Feature", 
              "properties": {
                "capacite": 13, 
                "lieu-dit": "AN AMIED(CLEDER)"
              }
            }, 
            {
              "geometry": {
                "type": "Point", 
                "coordinates": [
                  -4.129932322546866, 
                  48.69511906408074
                ]
              }, 
              "type": "Feature", 
              "properties": {
                "capacite": 81, 
                "lieu-dit": "AN AMIED(CLEDER)"
              }
            }, 
            {
              "geometry": {
                "type": "Point", 
                "coordinates": [
                  -4.13699407570099, 
                  48.69129935826925
                ]
              }, 
              "type": "Feature", 
              "properties": {
                "capacite": 115, 
                "lieu-dit": "KERRIEN(CLEDER)"
              }
            }, 
            {
              "geometry": {
                "type": "Point", 
                "coordinates": [
                  -4.138246734743762, 
                  48.69011596399876
                ]
              }, 
              "type": "Feature", 
              "properties": {
                "capacite": 69, 
                "lieu-dit": "KERRIEN(CLEDER)"
              }
            }, 
            {
              "geometry": {
                "type": "Point", 
                "coordinates": [
                  -4.159038877740854, 
                  48.68870984072999
                ]
              }, 
              "type": "Feature", 
              "properties": {
                "capacite": 62, 
                "lieu-dit": "KERFISSIEN(CLEDER)"
              }
            }, 
            {
              "geometry": {
                "type": "Point", 
                "coordinates": [
                  -4.159126151559312, 
                  48.689194912218404
                ]
              }, 
              "type": "Feature", 
              "properties": {
                "capacite": 133, 
                "lieu-dit": "TEVEN MEUR(CLEDER)"
              }
            }, 
            {
              "geometry": {
                "type": "Point", 
                "coordinates": [
                  -4.15094912052237, 
                  48.69119184249532
                ]
              }, 
              "type": "Feature", 
              "properties": {
                "capacite": 77, 
                "lieu-dit": "KER PORZ STRIZ(CLEDER)"
              }
            }
          ]
        }, 
        "activite_nautique": {
          "type": "FeatureCollection", 
          "features": [
            {
              "geometry": {
                "type": "Point", 
                "coordinates": [
                  -4.209481100000001, 
                  48.663961399994825
                ]
              }, 
              "type": "Feature", 
              "properties": {
                "ville": "PLOUESCAT", 
                "name": "Centre Nautique Municipal de Plouescat"
              }
            }, 
            {
              "geometry": {
                "type": "Point", 
                "coordinates": [
                  -4.103033, 
                  48.662654999994835
                ]
              }, 
              "type": "Feature", 
              "properties": {
                "ville": "CLEDER", 
                "name": "Club nautique Cl\u00e9derois"
              }
            }, 
            {
              "geometry": {
                "type": "Point", 
                "coordinates": [
                  -4.130034215123233, 
                  48.69262641394892
                ]
              }, 
              "type": "Feature", 
              "properties": {
                "ville": "CLEDER", 
                "name": "Bretagne Atlantic Yachting"
              }
            }, 
            {
              "geometry": {
                "type": "Point", 
                "coordinates": [
                  -4.0555432999999965, 
                  48.694104299994784
                ]
              }, 
              "type": "Feature", 
              "properties": {
                "ville": "SANTEC", 
                "name": "R\u00eaves de Mer - Centre Nature Bon Vent & Centre Nautique Santec"
              }
            }, 
            {
              "geometry": {
                "type": "Point", 
                "coordinates": [
                  -4.155214999999999, 
                  48.68916669999478
                ]
              }, 
              "type": "Feature", 
              "properties": {
                "ville": "CLEDER", 
                "name": "Slash Paradise"
              }
            }, 
            {
              "geometry": {
                "type": "Point", 
                "coordinates": [
                  -4.048701200000001, 
                  48.6631815999948
                ]
              }, 
              "type": "Feature", 
              "properties": {
                "ville": "PLOUGOULM", 
                "name": "Kite Sans Frontiere"
              }
            }, 
            {
              "geometry": {
                "type": "Point", 
                "coordinates": [
                  -4.009543999999998, 
                  48.71524339999478
                ]
              }, 
              "type": "Feature", 
              "properties": {
                "ville": "ROSCOFF", 
                "name": "Mille Nautique"
              }
            }, 
            {
              "geometry": {
                "type": "Point", 
                "coordinates": [
                  -4.082943500000001, 
                  48.6912675999948
                ]
              }, 
              "type": "Feature", 
              "properties": {
                "ville": "SIBIRIL", 
                "name": "Ecole de Surf du Leon"
              }
            }, 
            {
              "geometry": {
                "type": "Point", 
                "coordinates": [
                  -4.061814000000001, 
                  48.66459399999483
                ]
              }, 
              "type": "Feature", 
              "properties": {
                "ville": "ILE-MOLENE", 
                "name": "Breizh Kayak Evasion"
              }
            }, 
            {
              "geometry": {
                "type": "Point", 
                "coordinates": [
                  -4.052276399999998, 
                  48.69441869999478
                ]
              }, 
              "type": "Feature", 
              "properties": {
                "ville": "SANTEC", 
                "name": "Club de char a voile Enez Sieck"
              }
            }
          ]
        }
      }
    }, 
    {
      "geometry": {
        "type": "Point", 
        "coordinates": [
          -4.125770883988374, 
          48.6940416927875
        ]
      }, 
      "type": "Feature", 
      "properties": {
        "nb_stationnement_a_proximite": 473, 
        "name": "Cl\u00e9der", 
        "area": 6327.802090916419, 
        "magasin_plaisance": {
          "type": "FeatureCollection", 
          "features": [
            {
              "geometry": {
                "type": "Point", 
                "coordinates": [
                  -4.077185099999999, 
                  48.68805669999479
                ]
              }, 
              "type": "Feature", 
              "properties": {
                "ville": "SIBIRIL", 
                "cpost": "29250", 
                "name": "LES CASIERS D'ARMORIQUE"
              }
            }
          ]
        }, 
        "cale_a_proximite": 1, 
        "stationnements": {
          "type": "FeatureCollection", 
          "features": [
            {
              "geometry": {
                "type": "Point", 
                "coordinates": [
                  -4.133363523517484, 
                  48.69153485670164
                ]
              }, 
              "type": "Feature", 
              "properties": {
                "capacite": 111, 
                "lieu-dit": "AN AMIED(CLEDER)"
              }
            }, 
            {
              "geometry": {
                "type": "Point", 
                "coordinates": [
                  -4.132847492427032, 
                  48.69316930621094
                ]
              }, 
              "type": "Feature", 
              "properties": {
                "capacite": 27, 
                "lieu-dit": "AN AMIED(CLEDER)"
              }
            }, 
            {
              "geometry": {
                "type": "Point", 
                "coordinates": [
                  -4.133856152821071, 
                  48.694050493495936
                ]
              }, 
              "type": "Feature", 
              "properties": {
                "capacite": 146, 
                "lieu-dit": "AN AMIED(CLEDER)"
              }
            }, 
            {
              "geometry": {
                "type": "Point", 
                "coordinates": [
                  -4.131824225379785, 
                  48.6949992945328
                ]
              }, 
              "type": "Feature", 
              "properties": {
                "capacite": 13, 
                "lieu-dit": "AN AMIED(CLEDER)"
              }
            }, 
            {
              "geometry": {
                "type": "Point", 
                "coordinates": [
                  -4.129932322546866, 
                  48.69511906408074
                ]
              }, 
              "type": "Feature", 
              "properties": {
                "capacite": 81, 
                "lieu-dit": "AN AMIED(CLEDER)"
              }
            }, 
            {
              "geometry": {
                "type": "Point", 
                "coordinates": [
                  -4.122181789408336, 
                  48.69309519694319
                ]
              }, 
              "type": "Feature", 
              "properties": {
                "capacite": 44, 
                "lieu-dit": "POULENNOU(CLEDER)"
              }
            }, 
            {
              "geometry": {
                "type": "Point", 
                "coordinates": [
                  -4.120859067029936, 
                  48.69250542040124
                ]
              }, 
              "type": "Feature", 
              "properties": {
                "capacite": 13, 
                "lieu-dit": "POULENNOU(CLEDER)"
              }
            }, 
            {
              "geometry": {
                "type": "Point", 
                "coordinates": [
                  -4.1201759399470355, 
                  48.69241516666239
                ]
              }, 
              "type": "Feature", 
              "properties": {
                "capacite": 38, 
                "lieu-dit": "POULENNOU(CLEDER)"
              }
            }
          ]
        }, 
        "activite_nautique": {
          "type": "FeatureCollection", 
          "features": [
            {
              "geometry": {
                "type": "Point", 
                "coordinates": [
                  -4.209481100000001, 
                  48.663961399994825
                ]
              }, 
              "type": "Feature", 
              "properties": {
                "ville": "PLOUESCAT", 
                "name": "Centre Nautique Municipal de Plouescat"
              }
            }, 
            {
              "geometry": {
                "type": "Point", 
                "coordinates": [
                  -4.103033, 
                  48.662654999994835
                ]
              }, 
              "type": "Feature", 
              "properties": {
                "ville": "CLEDER", 
                "name": "Club nautique Cl\u00e9derois"
              }
            }, 
            {
              "geometry": {
                "type": "Point", 
                "coordinates": [
                  -4.130034215123233, 
                  48.69262641394892
                ]
              }, 
              "type": "Feature", 
              "properties": {
                "ville": "CLEDER", 
                "name": "Bretagne Atlantic Yachting"
              }
            }, 
            {
              "geometry": {
                "type": "Point", 
                "coordinates": [
                  -4.0555432999999965, 
                  48.694104299994784
                ]
              }, 
              "type": "Feature", 
              "properties": {
                "ville": "SANTEC", 
                "name": "R\u00eaves de Mer - Centre Nature Bon Vent & Centre Nautique Santec"
              }
            }, 
            {
              "geometry": {
                "type": "Point", 
                "coordinates": [
                  -4.155214999999999, 
                  48.68916669999478
                ]
              }, 
              "type": "Feature", 
              "properties": {
                "ville": "CLEDER", 
                "name": "Slash Paradise"
              }
            }, 
            {
              "geometry": {
                "type": "Point", 
                "coordinates": [
                  -4.048701200000001, 
                  48.6631815999948
                ]
              }, 
              "type": "Feature", 
              "properties": {
                "ville": "PLOUGOULM", 
                "name": "Kite Sans Frontiere"
              }
            }, 
            {
              "geometry": {
                "type": "Point", 
                "coordinates": [
                  -4.009543999999998, 
                  48.71524339999478
                ]
              }, 
              "type": "Feature", 
              "properties": {
                "ville": "ROSCOFF", 
                "name": "Mille Nautique"
              }
            }, 
            {
              "geometry": {
                "type": "Point", 
                "coordinates": [
                  -4.082943500000001, 
                  48.6912675999948
                ]
              }, 
              "type": "Feature", 
              "properties": {
                "ville": "SIBIRIL", 
                "name": "Ecole de Surf du Leon"
              }
            }, 
            {
              "geometry": {
                "type": "Point", 
                "coordinates": [
                  -4.061814000000001, 
                  48.66459399999483
                ]
              }, 
              "type": "Feature", 
              "properties": {
                "ville": "ILE-MOLENE", 
                "name": "Breizh Kayak Evasion"
              }
            }, 
            {
              "geometry": {
                "type": "Point", 
                "coordinates": [
                  -4.052276399999998, 
                  48.69441869999478
                ]
              }, 
              "type": "Feature", 
              "properties": {
                "ville": "SANTEC", 
                "name": "Club de char a voile Enez Sieck"
              }
            }
          ]
        }
      }
    }, 
    {
      "geometry": {
        "type": "Point", 
        "coordinates": [
          -4.119083078864797, 
          48.693492798465364
        ]
      }, 
      "type": "Feature", 
      "properties": {
        "nb_stationnement_a_proximite": 110, 
        "name": "Cl\u00e9der", 
        "area": 10219.556532263057, 
        "magasin_plaisance": {
          "type": "FeatureCollection", 
          "features": [
            {
              "geometry": {
                "type": "Point", 
                "coordinates": [
                  -4.077185099999999, 
                  48.68805669999479
                ]
              }, 
              "type": "Feature", 
              "properties": {
                "ville": "SIBIRIL", 
                "cpost": "29250", 
                "name": "LES CASIERS D'ARMORIQUE"
              }
            }
          ]
        }, 
        "cale_a_proximite": 1, 
        "stationnements": {
          "type": "FeatureCollection", 
          "features": [
            {
              "geometry": {
                "type": "Point", 
                "coordinates": [
                  -4.122181789408336, 
                  48.69309519694319
                ]
              }, 
              "type": "Feature", 
              "properties": {
                "capacite": 44, 
                "lieu-dit": "POULENNOU(CLEDER)"
              }
            }, 
            {
              "geometry": {
                "type": "Point", 
                "coordinates": [
                  -4.11546865218777, 
                  48.6946960205612
                ]
              }, 
              "type": "Feature", 
              "properties": {
                "capacite": 15, 
                "lieu-dit": "PLAGE DE KERVALIOU(CLEDER)"
              }
            }, 
            {
              "geometry": {
                "type": "Point", 
                "coordinates": [
                  -4.120859067029936, 
                  48.69250542040124
                ]
              }, 
              "type": "Feature", 
              "properties": {
                "capacite": 13, 
                "lieu-dit": "POULENNOU(CLEDER)"
              }
            }, 
            {
              "geometry": {
                "type": "Point", 
                "coordinates": [
                  -4.1201759399470355, 
                  48.69241516666239
                ]
              }, 
              "type": "Feature", 
              "properties": {
                "capacite": 38, 
                "lieu-dit": "POULENNOU(CLEDER)"
              }
            }
          ]
        }, 
        "activite_nautique": {
          "type": "FeatureCollection", 
          "features": [
            {
              "geometry": {
                "type": "Point", 
                "coordinates": [
                  -4.209481100000001, 
                  48.663961399994825
                ]
              }, 
              "type": "Feature", 
              "properties": {
                "ville": "PLOUESCAT", 
                "name": "Centre Nautique Municipal de Plouescat"
              }
            }, 
            {
              "geometry": {
                "type": "Point", 
                "coordinates": [
                  -4.103033, 
                  48.662654999994835
                ]
              }, 
              "type": "Feature", 
              "properties": {
                "ville": "CLEDER", 
                "name": "Club nautique Cl\u00e9derois"
              }
            }, 
            {
              "geometry": {
                "type": "Point", 
                "coordinates": [
                  -3.9863550999999986, 
                  48.68558439999479
                ]
              }, 
              "type": "Feature", 
              "properties": {
                "ville": "SAINT-POL-DE-LEON", 
                "name": "Centre Nautique de Saint-Pol-de-Leon"
              }
            }, 
            {
              "geometry": {
                "type": "Point", 
                "coordinates": [
                  -4.130034215123233, 
                  48.69262641394892
                ]
              }, 
              "type": "Feature", 
              "properties": {
                "ville": "CLEDER", 
                "name": "Bretagne Atlantic Yachting"
              }
            }, 
            {
              "geometry": {
                "type": "Point", 
                "coordinates": [
                  -4.0555432999999965, 
                  48.694104299994784
                ]
              }, 
              "type": "Feature", 
              "properties": {
                "ville": "SANTEC", 
                "name": "R\u00eaves de Mer - Centre Nature Bon Vent & Centre Nautique Santec"
              }
            }, 
            {
              "geometry": {
                "type": "Point", 
                "coordinates": [
                  -4.155214999999999, 
                  48.68916669999478
                ]
              }, 
              "type": "Feature", 
              "properties": {
                "ville": "CLEDER", 
                "name": "Slash Paradise"
              }
            }, 
            {
              "geometry": {
                "type": "Point", 
                "coordinates": [
                  -4.048701200000001, 
                  48.6631815999948
                ]
              }, 
              "type": "Feature", 
              "properties": {
                "ville": "PLOUGOULM", 
                "name": "Kite Sans Frontiere"
              }
            }, 
            {
              "geometry": {
                "type": "Point", 
                "coordinates": [
                  -4.009543999999998, 
                  48.71524339999478
                ]
              }, 
              "type": "Feature", 
              "properties": {
                "ville": "ROSCOFF", 
                "name": "Mille Nautique"
              }
            }, 
            {
              "geometry": {
                "type": "Point", 
                "coordinates": [
                  -4.082943500000001, 
                  48.6912675999948
                ]
              }, 
              "type": "Feature", 
              "properties": {
                "ville": "SIBIRIL", 
                "name": "Ecole de Surf du Leon"
              }
            }, 
            {
              "geometry": {
                "type": "Point", 
                "coordinates": [
                  -4.061814000000001, 
                  48.66459399999483
                ]
              }, 
              "type": "Feature", 
              "properties": {
                "ville": "ILE-MOLENE", 
                "name": "Breizh Kayak Evasion"
              }
            }
          ]
        }
      }
    }, 
    {
      "geometry": {
        "type": "Point", 
        "coordinates": [
          -4.164595690080386, 
          48.68902332622336
        ]
      }, 
      "type": "Feature", 
      "properties": {
        "nb_stationnement_a_proximite": 451, 
        "name": "Plouescat", 
        "area": 16901.327688137535, 
        "magasin_plaisance": {
          "type": "FeatureCollection", 
          "features": [
            {
              "geometry": {
                "type": "Point", 
                "coordinates": [
                  -4.077185099999999, 
                  48.68805669999479
                ]
              }, 
              "type": "Feature", 
              "properties": {
                "ville": "SIBIRIL", 
                "cpost": "29250", 
                "name": "LES CASIERS D'ARMORIQUE"
              }
            }
          ]
        }, 
        "cale_a_proximite": 0, 
        "stationnements": {
          "type": "FeatureCollection", 
          "features": [
            {
              "geometry": {
                "type": "Point", 
                "coordinates": [
                  -4.166080082328075, 
                  48.6878617274574
                ]
              }, 
              "type": "Feature", 
              "properties": {
                "capacite": 118, 
                "lieu-dit": "POULFOEN(PLOUESCAT)"
              }
            }, 
            {
              "geometry": {
                "type": "Point", 
                "coordinates": [
                  -4.159038877740854, 
                  48.68870984072999
                ]
              }, 
              "type": "Feature", 
              "properties": {
                "capacite": 62, 
                "lieu-dit": "KERFISSIEN(CLEDER)"
              }
            }, 
            {
              "geometry": {
                "type": "Point", 
                "coordinates": [
                  -4.159126151559312, 
                  48.689194912218404
                ]
              }, 
              "type": "Feature", 
              "properties": {
                "capacite": 133, 
                "lieu-dit": "TEVEN MEUR(CLEDER)"
              }
            }, 
            {
              "geometry": {
                "type": "Point", 
                "coordinates": [
                  -4.160417235380469, 
                  48.68975666635606
                ]
              }, 
              "type": "Feature", 
              "properties": {
                "capacite": 99, 
                "lieu-dit": "TEVEN MEUR(CLEDER)"
              }
            }, 
            {
              "geometry": {
                "type": "Point", 
                "coordinates": [
                  -4.16987863439588, 
                  48.686660071927015
                ]
              }, 
              "type": "Feature", 
              "properties": {
                "capacite": 39, 
                "lieu-dit": "PEN AR PORZ(PLOUESCAT)"
              }
            }
          ]
        }, 
        "activite_nautique": {
          "type": "FeatureCollection", 
          "features": [
            {
              "geometry": {
                "type": "Point", 
                "coordinates": [
                  -4.209481100000001, 
                  48.663961399994825
                ]
              }, 
              "type": "Feature", 
              "properties": {
                "ville": "PLOUESCAT", 
                "name": "Centre Nautique Municipal de Plouescat"
              }
            }, 
            {
              "geometry": {
                "type": "Point", 
                "coordinates": [
                  -4.103033, 
                  48.662654999994835
                ]
              }, 
              "type": "Feature", 
              "properties": {
                "ville": "CLEDER", 
                "name": "Club nautique Cl\u00e9derois"
              }
            }, 
            {
              "geometry": {
                "type": "Point", 
                "coordinates": [
                  -4.130034215123233, 
                  48.69262641394892
                ]
              }, 
              "type": "Feature", 
              "properties": {
                "ville": "CLEDER", 
                "name": "Bretagne Atlantic Yachting"
              }
            }, 
            {
              "geometry": {
                "type": "Point", 
                "coordinates": [
                  -4.0555432999999965, 
                  48.694104299994784
                ]
              }, 
              "type": "Feature", 
              "properties": {
                "ville": "SANTEC", 
                "name": "R\u00eaves de Mer - Centre Nature Bon Vent & Centre Nautique Santec"
              }
            }, 
            {
              "geometry": {
                "type": "Point", 
                "coordinates": [
                  -4.155214999999999, 
                  48.68916669999478
                ]
              }, 
              "type": "Feature", 
              "properties": {
                "ville": "CLEDER", 
                "name": "Slash Paradise"
              }
            }, 
            {
              "geometry": {
                "type": "Point", 
                "coordinates": [
                  -4.048701200000001, 
                  48.6631815999948
                ]
              }, 
              "type": "Feature", 
              "properties": {
                "ville": "PLOUGOULM", 
                "name": "Kite Sans Frontiere"
              }
            }, 
            {
              "geometry": {
                "type": "Point", 
                "coordinates": [
                  -4.082943500000001, 
                  48.6912675999948
                ]
              }, 
              "type": "Feature", 
              "properties": {
                "ville": "SIBIRIL", 
                "name": "Ecole de Surf du Leon"
              }
            }, 
            {
              "geometry": {
                "type": "Point", 
                "coordinates": [
                  -4.061814000000001, 
                  48.66459399999483
                ]
              }, 
              "type": "Feature", 
              "properties": {
                "ville": "ILE-MOLENE", 
                "name": "Breizh Kayak Evasion"
              }
            }, 
            {
              "geometry": {
                "type": "Point", 
                "coordinates": [
                  -4.052276399999998, 
                  48.69441869999478
                ]
              }, 
              "type": "Feature", 
              "properties": {
                "ville": "SANTEC", 
                "name": "Club de char a voile Enez Sieck"
              }
            }, 
            {
              "geometry": {
                "type": "Point", 
                "coordinates": [
                  -4.1740198, 
                  48.65743429999483
                ]
              }, 
              "type": "Feature", 
              "properties": {
                "ville": "PLOUESCAT", 
                "name": "Association sportive Voile Plouescat"
              }
            }
          ]
        }
      }
    }, 
    {
      "geometry": {
        "type": "Point", 
        "coordinates": [
          -4.348525590901095, 
          48.67681979908721
        ]
      }, 
      "type": "Feature", 
      "properties": {
        "nb_stationnement_a_proximite": 177, 
        "name": "Kerlouan", 
        "area": 13977.137181639788, 
        "magasin_plaisance": {
          "type": "FeatureCollection", 
          "features": []
        }, 
        "cale_a_proximite": 0, 
        "stationnements": {
          "type": "FeatureCollection", 
          "features": [
            {
              "geometry": {
                "type": "Point", 
                "coordinates": [
                  -4.346481246316696, 
                  48.67681558344967
                ]
              }, 
              "type": "Feature", 
              "properties": {
                "capacite": 17, 
                "lieu-dit": "POINTE DE BEG POL(MARINE())"
              }
            }, 
            {
              "geometry": {
                "type": "Point", 
                "coordinates": [
                  -4.35501729606001, 
                  48.6734873365138
                ]
              }, 
              "type": "Feature", 
              "properties": {
                "capacite": 44, 
                "lieu-dit": "CREMIOU(KERLOUAN)"
              }
            }, 
            {
              "geometry": {
                "type": "Point", 
                "coordinates": [
                  -4.353909564807932, 
                  48.673594141743756
                ]
              }, 
              "type": "Feature", 
              "properties": {
                "capacite": 69, 
                "lieu-dit": "CREMIOU(KERLOUAN)"
              }
            }, 
            {
              "geometry": {
                "type": "Point", 
                "coordinates": [
                  -4.3495588539588885, 
                  48.67617666690804
                ]
              }, 
              "type": "Feature", 
              "properties": {
                "capacite": 47, 
                "lieu-dit": "PLAGE DU PHARE(BRIGNOGAN-PLAGE)"
              }
            }
          ]
        }, 
        "activite_nautique": {
          "type": "FeatureCollection", 
          "features": [
            {
              "geometry": {
                "type": "Point", 
                "coordinates": [
                  -4.328065600000001, 
                  48.6731299999948
                ]
              }, 
              "type": "Feature", 
              "properties": {
                "ville": "BRIGNOGAN-PLAGE", 
                "name": "Centre Nautique de Brignogan-Plages"
              }
            }, 
            {
              "geometry": {
                "type": "Point", 
                "coordinates": [
                  -4.303459000000001, 
                  48.65268999999483
                ]
              }, 
              "type": "Feature", 
              "properties": {
                "ville": "PLOUNEOUR-TREZ", 
                "name": "R\u00eaves de Mer - Kermor B3 & Maison de la Baie"
              }
            }, 
            {
              "geometry": {
                "type": "Point", 
                "coordinates": [
                  -4.3175722, 
                  48.65082509999481
                ]
              }, 
              "type": "Feature", 
              "properties": {
                "ville": "PLOUNEOUR-TREZ", 
                "name": "Kerurus Voile et Vent"
              }
            }, 
            {
              "geometry": {
                "type": "Point", 
                "coordinates": [
                  -4.388805699999995, 
                  48.646240299994815
                ]
              }, 
              "type": "Feature", 
              "properties": {
                "ville": "KERLOUAN", 
                "name": "Trechou Surf Club"
              }
            }, 
            {
              "geometry": {
                "type": "Point", 
                "coordinates": [
                  -4.400470730975162, 
                  48.65419035740021
                ]
              }, 
              "type": "Feature", 
              "properties": {
                "ville": "KERLOUAN", 
                "name": "PAGAN SURF SCHOOL"
              }
            }
          ]
        }
      }
    }, 
    {
      "geometry": {
        "type": "Point", 
        "coordinates": [
          -4.084877526768435, 
          48.69104027872791
        ]
      }, 
      "type": "Feature", 
      "properties": {
        "nb_stationnement_a_proximite": 228, 
        "name": "Sibiril", 
        "area": 4326.028242632397, 
        "magasin_plaisance": {
          "type": "FeatureCollection", 
          "features": [
            {
              "geometry": {
                "type": "Point", 
                "coordinates": [
                  -4.077185099999999, 
                  48.68805669999479
                ]
              }, 
              "type": "Feature", 
              "properties": {
                "ville": "SIBIRIL", 
                "cpost": "29250", 
                "name": "LES CASIERS D'ARMORIQUE"
              }
            }, 
            {
              "geometry": {
                "type": "Point", 
                "coordinates": [
                  -3.9805358999999965, 
                  48.72274919999477
                ]
              }, 
              "type": "Feature", 
              "properties": {
                "ville": "ROSCOFF", 
                "cpost": "29680", 
                "name": "COMPTOIR DE LA MER"
              }
            }, 
            {
              "geometry": {
                "type": "Point", 
                "coordinates": [
                  -3.9694778999999976, 
                  48.72268229999477
                ]
              }, 
              "type": "Feature", 
              "properties": {
                "ville": "ROSCOFF", 
                "cpost": "29680", 
                "name": "COOPANORD"
              }
            }
          ]
        }, 
        "cale_a_proximite": 0, 
        "stationnements": {
          "type": "FeatureCollection", 
          "features": [
            {
              "geometry": {
                "type": "Point", 
                "coordinates": [
                  -4.092508156115496, 
                  48.68931946756975
                ]
              }, 
              "type": "Feature", 
              "properties": {
                "capacite": 46, 
                "lieu-dit": "CREAC H AL LIA(SIBIRIL)"
              }
            }, 
            {
              "geometry": {
                "type": "Point", 
                "coordinates": [
                  -4.080816755907112, 
                  48.6899227099822
                ]
              }, 
              "type": "Feature", 
              "properties": {
                "capacite": 49, 
                "lieu-dit": "TEVENN(SIBIRIL)"
              }
            }, 
            {
              "geometry": {
                "type": "Point", 
                "coordinates": [
                  -4.083570855672891, 
                  48.691353340465014
                ]
              }, 
              "type": "Feature", 
              "properties": {
                "capacite": 133, 
                "lieu-dit": "TEVENN(SIBIRIL)"
              }
            }
          ]
        }, 
        "activite_nautique": {
          "type": "FeatureCollection", 
          "features": [
            {
              "geometry": {
                "type": "Point", 
                "coordinates": [
                  -4.209481100000001, 
                  48.663961399994825
                ]
              }, 
              "type": "Feature", 
              "properties": {
                "ville": "PLOUESCAT", 
                "name": "Centre Nautique Municipal de Plouescat"
              }
            }, 
            {
              "geometry": {
                "type": "Point", 
                "coordinates": [
                  -4.103033, 
                  48.662654999994835
                ]
              }, 
              "type": "Feature", 
              "properties": {
                "ville": "CLEDER", 
                "name": "Club nautique Cl\u00e9derois"
              }
            }, 
            {
              "geometry": {
                "type": "Point", 
                "coordinates": [
                  -3.982923199999999, 
                  48.72525809999477
                ]
              }, 
              "type": "Feature", 
              "properties": {
                "ville": "ROSCOFF", 
                "name": "Centre Nautique de Roscoff"
              }
            }, 
            {
              "geometry": {
                "type": "Point", 
                "coordinates": [
                  -3.9863550999999986, 
                  48.68558439999479
                ]
              }, 
              "type": "Feature", 
              "properties": {
                "ville": "SAINT-POL-DE-LEON", 
                "name": "Centre Nautique de Saint-Pol-de-Leon"
              }
            }, 
            {
              "geometry": {
                "type": "Point", 
                "coordinates": [
                  -4.130034215123233, 
                  48.69262641394892
                ]
              }, 
              "type": "Feature", 
              "properties": {
                "ville": "CLEDER", 
                "name": "Bretagne Atlantic Yachting"
              }
            }, 
            {
              "geometry": {
                "type": "Point", 
                "coordinates": [
                  -4.0555432999999965, 
                  48.694104299994784
                ]
              }, 
              "type": "Feature", 
              "properties": {
                "ville": "SANTEC", 
                "name": "R\u00eaves de Mer - Centre Nature Bon Vent & Centre Nautique Santec"
              }
            }, 
            {
              "geometry": {
                "type": "Point", 
                "coordinates": [
                  -4.155214999999999, 
                  48.68916669999478
                ]
              }, 
              "type": "Feature", 
              "properties": {
                "ville": "CLEDER", 
                "name": "Slash Paradise"
              }
            }, 
            {
              "geometry": {
                "type": "Point", 
                "coordinates": [
                  -4.048701200000001, 
                  48.6631815999948
                ]
              }, 
              "type": "Feature", 
              "properties": {
                "ville": "PLOUGOULM", 
                "name": "Kite Sans Frontiere"
              }
            }, 
            {
              "geometry": {
                "type": "Point", 
                "coordinates": [
                  -4.009543999999998, 
                  48.71524339999478
                ]
              }, 
              "type": "Feature", 
              "properties": {
                "ville": "ROSCOFF", 
                "name": "Mille Nautique"
              }
            }, 
            {
              "geometry": {
                "type": "Point", 
                "coordinates": [
                  -4.082943500000001, 
                  48.6912675999948
                ]
              }, 
              "type": "Feature", 
              "properties": {
                "ville": "SIBIRIL", 
                "name": "Ecole de Surf du Leon"
              }
            }
          ]
        }
      }
    }, 
    {
      "geometry": {
        "type": "Point", 
        "coordinates": [
          -4.360839269469934, 
          48.67172014294247
        ]
      }, 
      "type": "Feature", 
      "properties": {
        "nb_stationnement_a_proximite": 656, 
        "name": "Kerlouan", 
        "area": 54013.9401196152, 
        "magasin_plaisance": {
          "type": "FeatureCollection", 
          "features": []
        }, 
        "cale_a_proximite": 0, 
        "stationnements": {
          "type": "FeatureCollection", 
          "features": [
            {
              "geometry": {
                "type": "Point", 
                "coordinates": [
                  -4.346481246316696, 
                  48.67681558344967
                ]
              }, 
              "type": "Feature", 
              "properties": {
                "capacite": 17, 
                "lieu-dit": "POINTE DE BEG POL(MARINE())"
              }
            }, 
            {
              "geometry": {
                "type": "Point", 
                "coordinates": [
                  -4.35501729606001, 
                  48.6734873365138
                ]
              }, 
              "type": "Feature", 
              "properties": {
                "capacite": 44, 
                "lieu-dit": "CREMIOU(KERLOUAN)"
              }
            }, 
            {
              "geometry": {
                "type": "Point", 
                "coordinates": [
                  -4.353909564807932, 
                  48.673594141743756
                ]
              }, 
              "type": "Feature", 
              "properties": {
                "capacite": 69, 
                "lieu-dit": "CREMIOU(KERLOUAN)"
              }
            }, 
            {
              "geometry": {
                "type": "Point", 
                "coordinates": [
                  -4.371351201175298, 
                  48.667509481015294
                ]
              }, 
              "type": "Feature", 
              "properties": {
                "capacite": 77, 
                "lieu-dit": "MENEZ HAM(KERLOUAN)"
              }
            }, 
            {
              "geometry": {
                "type": "Point", 
                "coordinates": [
                  -4.371720273695706, 
                  48.66666531661769
                ]
              }, 
              "type": "Feature", 
              "properties": {
                "capacite": 65, 
                "lieu-dit": "MENEZ HAM(KERLOUAN)"
              }
            }, 
            {
              "geometry": {
                "type": "Point", 
                "coordinates": [
                  -4.3720399565914345, 
                  48.667003831909554
                ]
              }, 
              "type": "Feature", 
              "properties": {
                "capacite": 126, 
                "lieu-dit": "MENEZ HAM(KERLOUAN)"
              }
            }, 
            {
              "geometry": {
                "type": "Point", 
                "coordinates": [
                  -4.37175136886755, 
                  48.668640060172066
                ]
              }, 
              "type": "Feature", 
              "properties": {
                "capacite": 30, 
                "lieu-dit": "MENEZ HAM(KERLOUAN)"
              }
            }, 
            {
              "geometry": {
                "type": "Point", 
                "coordinates": [
                  -4.370634368961306, 
                  48.66820848188504
                ]
              }, 
              "type": "Feature", 
              "properties": {
                "capacite": 12, 
                "lieu-dit": "MENEZ HAM(KERLOUAN)"
              }
            }, 
            {
              "geometry": {
                "type": "Point", 
                "coordinates": [
                  -4.36998855835718, 
                  48.667701155408146
                ]
              }, 
              "type": "Feature", 
              "properties": {
                "capacite": 94, 
                "lieu-dit": "MENEZ HAM(KERLOUAN)"
              }
            }, 
            {
              "geometry": {
                "type": "Point", 
                "coordinates": [
                  -4.358047089203535, 
                  48.67162452452809
                ]
              }, 
              "type": "Feature", 
              "properties": {
                "capacite": 20, 
                "lieu-dit": "MINIOC(KERLOUAN)"
              }
            }
          ]
        }, 
        "activite_nautique": {
          "type": "FeatureCollection", 
          "features": [
            {
              "geometry": {
                "type": "Point", 
                "coordinates": [
                  -4.328065600000001, 
                  48.6731299999948
                ]
              }, 
              "type": "Feature", 
              "properties": {
                "ville": "BRIGNOGAN-PLAGE", 
                "name": "Centre Nautique de Brignogan-Plages"
              }
            }, 
            {
              "geometry": {
                "type": "Point", 
                "coordinates": [
                  -4.303459000000001, 
                  48.65268999999483
                ]
              }, 
              "type": "Feature", 
              "properties": {
                "ville": "PLOUNEOUR-TREZ", 
                "name": "R\u00eaves de Mer - Kermor B3 & Maison de la Baie"
              }
            }, 
            {
              "geometry": {
                "type": "Point", 
                "coordinates": [
                  -4.3175722, 
                  48.65082509999481
                ]
              }, 
              "type": "Feature", 
              "properties": {
                "ville": "PLOUNEOUR-TREZ", 
                "name": "Kerurus Voile et Vent"
              }
            }, 
            {
              "geometry": {
                "type": "Point", 
                "coordinates": [
                  -4.388805699999995, 
                  48.646240299994815
                ]
              }, 
              "type": "Feature", 
              "properties": {
                "ville": "KERLOUAN", 
                "name": "Trechou Surf Club"
              }
            },